Survey Date,Survey Round,Site ID,Site Name,Site Alternate Name,OCHA Region,OCHA Region P-Code,OCHA Zone,OCHA Zone P-Code,OCHA Woreda,OCHA Woreda P-Code,Longitude,Latitude,Site Open Date,Settlement/site type,Total Individuals,Data Source,Managed Site?,Camp Management Agency,Notes
"26 June, 2021",7,TG578,Guna Poultry farm,,Tigray,ET01,North Western,ET0101,Indasilassie town,ET010108,38.2792704,14.1134765,44149,Collective Center,4800,Preliminary,yes,IOM,
"26 June, 2021",7,TG584,Hibret,,Tigray,ET01,North Western,ET0101,Indasilassie town,ET010108,38.2851095,14.1013408,44149,Host community/families,148761,Preliminary,yes,UNHCR/ANE,
"26 June, 2021",7,TG583,Tahtay Beles,,Tigray,ET01,North Western,ET0101,Tahtay Koraro,ET010104,38.3952899,14.0714806,44166,Host community/families,1099,Preliminary,,,
"25 June, 2021",7,TG610,Model  Kindergarden,,Tigray,ET01,North Western,ET0101,Indasilassie town,ET010108,38.2858716,14.1089701,44145,Collective Center,1650,Preliminary,,,
"25 June, 2021",7,TG612,Youth Recreational Center,,Tigray,ET01,North Western,ET0101,Indasilassie town,ET010108,38.2948847,14.1083558,44145,Host community/families,546,Preliminary,,,
"24 June, 2021",7,TG598,Five Angels,,Tigray,ET01,North Western,ET0101,Indasilassie town,ET010108,38.28599486,14.07965059,44360,Planned camp/site,3072,Preliminary,yes,UNHCR/ANE,
"24 June, 2021",7,TG611,Mender 1,,Tigray,ET01,North Western,ET0101,Indasilassie town,ET010108,38.2780378,14.0998744,44145,Host community/families,21259,Preliminary,,,
"24 June, 2021",7,TG609,Mender 2,,Tigray,ET01,North Western,ET0101,Indasilassie town,ET010108,38.2772518,14.1045903,44145,Host community/families,58890,Preliminary,,,
"24 June, 2021",7,TG606,Mender 3,,Tigray,ET01,North Western,ET0101,Indasilassie town,ET010108,38.27788192,14.09058988,44149,Host community/families,210462,Preliminary,,,
"24 June, 2021",7,TG625,Midre Genet Elders Care Center,,Tigray,ET01,Mekelle,ET0107,Mekelle,ET010701,39.4669007,13.4945946,44367,Collective Center,272,Preliminary,,,
"24 June, 2021",7,TG585,Sehul,,Tigray,ET01,North Western,ET0101,Indasilassie town,ET010108,38.2852319,14.1067134,44149,Host community/families,117530,Preliminary,,,
"24 June, 2021",7,TG605,Taba Weyane Elementary school,Teba Weyane Tsinat Primary School,Tigray,ET01,North Western,ET0101,Indasilassie town,ET010108,38.27960412,14.0940627,44359,Collective Center,6639,Preliminary,yes,IOM,
"23 June, 2021",7,AM259,Kebero Meda,,Amhara,ET03,Central Gondar,ET0311,Gonder town,ET031118,37.4162083,12.5518904,44162,Planned camp/site,1930,Preliminary,,,
"23 June, 2021",7,TG577,Amare,,Tigray,ET01,North Western,ET0101,Sheraro town,ET010107,37.7666979,14.3925793,44145,Host community/families,51801,Preliminary,,,
"23 June, 2021",7,TG582,Maebel,,Tigray,ET01,North Western,ET0101,Sheraro town,ET010107,37.7714613,14.3984376,42590,Host community/families,17818,Preliminary,,,
"23 June, 2021",7,TG608,Sheraro Shede 2,,Tigray,ET01,North Western,ET0101,Sheraro town,ET010107,37.7805461,14.3978333,44145,Collective Center,497,Preliminary,,,
"23 June, 2021",7,TG581,Sheraro Stadium,,Tigray,ET01,North Western,ET0101,Sheraro town,ET010107,37.7672655,14.3862345,44145,Host community/families,44523,Preliminary,,,
"22 June, 2021",7,TG499,107 Elementary School,,Tigray,ET01,North Western,ET0101,Sheraro town,ET010107,37.76490759,14.38857799,44261,Collective Center,720,Preliminary,yes,UNHCR/ANE,
"22 June, 2021",7,TG505,Bet Mekri,,Tigray,ET01,North Western,ET0101,Sheraro town,ET010107,37.77371068,14.39047854,44256,Collective Center,146,Preliminary,,,
"22 June, 2021",7,TG498,Catholic Elementary School,,Tigray,ET01,North Western,ET0101,Sheraro town,ET010107,37.7735122,14.3878735,44145,Collective Center,929,Preliminary,yes,UNHCR/ANE,
"22 June, 2021",7,TG506,Enda China,,Tigray,ET01,North Western,ET0101,Sheraro town,ET010107,37.7663739,14.38327195,44256,Collective Center,16283,Preliminary,yes,UNHCR/ANE,
"22 June, 2021",7,TG500,Ethnographic Museum of Kunama,,Tigray,ET01,North Western,ET0101,Sheraro town,ET010107,37.76609985,14.39771795,44251,Collective Center,309,Preliminary,yes,UNHCR/ANE,
"22 June, 2021",7,TG592,Hayelom,,Tigray,ET01,North Western,ET0101,Maekel Adyabo,ET010112,37.9864554,14.45335,44145,Host community/families,4757,Preliminary,,,
"22 June, 2021",7,TG591,Kuhlen,,Tigray,ET01,North Western,ET0101,Sheraro town,ET010107,37.7729285,14.3906995,44145,Host community/families,122499,Preliminary,,,
"22 June, 2021",7,TG601,May Gilgalot Ketema,,Tigray,ET01,North Western,ET0101,Sheraro town,ET010107,37.76814348,14.38826041,44352,Collective Center,679,Preliminary,,,
"22 June, 2021",7,TG502,Mlinuem Elementary School,,Tigray,ET01,North Western,ET0101,Sheraro town,ET010107,37.76614501,14.39860273,44256,Collective Center,1457,Preliminary,yes,UNHCR/ANE,
"22 June, 2021",7,TG501,Mussie Preparatory School,,Tigray,ET01,North Western,ET0101,Sheraro town,ET010107,37.76340213,14.39275278,44209,Collective Center,2117,Preliminary,yes,UNHCR/ANE,
"22 June, 2021",7,TG504,Semaetat Elementary School,,Tigray,ET01,North Western,ET0101,Sheraro town,ET010107,37.77030313,14.38691132,44209,Collective Center,1799,Preliminary,yes,UNHCR/ANE,
"22 June, 2021",7,TG507,Sheraro Secondary School,,Tigray,ET01,North Western,ET0101,Sheraro town,ET010107,37.7774707,14.3941373,44145,Collective Center,9657,Preliminary,,,
"22 June, 2021",7,TG607,Sheraro Shede 1,,Tigray,ET01,North Western,ET0101,Sheraro town,ET010107,37.7747268,14.3924753,44145,Collective Center,706,Preliminary,,,
"22 June, 2021",7,TG497,Sheraro TVET,,Tigray,ET01,North Western,ET0101,Sheraro town,ET010107,37.7773284,14.3949066,44145,Host community/families,908,Preliminary,,,
"22 June, 2021",7,TG503,Tekeze Co-operative Union Shed,,Tigray,ET01,North Western,ET0101,Sheraro town,ET010107,37.76571182,14.38920953,44211,Collective Center,224,Preliminary,yes,UNHCR/ANE,
"21 June, 2021",7,TG496,Adihageray Elementary School,,Tigray,ET01,North Western,ET0101,Maekel Adyabo,ET010112,37.9877112,14.4508055,44145,Host community/families,851,Preliminary,,,
"21 June, 2021",7,TG216,Adis Tesfa,,Tigray,ET01,Eastern,ET0103,Gulo Mekeda,ET010301,39.365737,14.4671588,43358,Host community/families,6183,Preliminary,,,
"21 June, 2021",7,TG629,Adissalem,,Tigray,ET01,Eastern,ET0103,Zala Anbesa town,ET010318,39.3834873,14.5221738,44162,Host community/families,1339,Preliminary,,,
"21 June, 2021",7,TG218,Ambeset Fkada,,Tigray,ET01,Eastern,ET0103,Gulo Mekeda,ET010301,39.4008148,14.3912797,43368,Host community/families,7508,Preliminary,,,
"21 June, 2021",7,TG630,Araguro,,Tigray,ET01,Eastern,ET0103,Zala Anbesa town,ET010318,39.3828586,14.5189595,44162,Host community/families,1186,Preliminary,,,
"21 June, 2021",7,TG632,Aratkilo,,Tigray,ET01,Eastern,ET0103,Zala Anbesa town,ET010318,39.3861992,14.5256332,44162,Host community/families,1220,Preliminary,,,
"21 June, 2021",7,TG220,Fatsi Town,,Tigray,ET01,Eastern,ET0103,Gulo Mekeda,ET010301,39.3805856,14.4004775,43358,Host community/families,7067,Preliminary,,,
"21 June, 2021",7,TG631,Mibrak Tsehay,,Tigray,ET01,Eastern,ET0103,Zala Anbesa town,ET010318,39.3869737,14.530091,44162,Host community/families,1496,Preliminary,,,
"21 June, 2021",7,TG236,Shewit Lemlem,,Tigray,ET01,Eastern,ET0103,Gulo Mekeda,ET010301,39.3692257,14.4110166,43398,Host community/families,1328,Preliminary,,,
"19 June, 2021",7,TG567,Adi Daero Elementary School,,Tigray,ET01,North Western,ET0101,Adi Daero,ET010111,38.17321225,14.31201052,44303,Collective Center,801,Preliminary,,,
"19 June, 2021",7,TG550,Adi Nebried Elementary School,,Tigray,ET01,North Western,ET0101,Seyemti Adyabo,ET010110,38.1889702,14.41324359,44256,Collective Center,2880,Preliminary,yes,UNHCR/ANE,
"19 June, 2021",7,TG199,Adi-Nebried Town,,Tigray,ET01,North Western,ET0101,Seyemti Adyabo,ET010110,38.18708402,14.4177009,43351,Host community/families,13840,Preliminary,,,
"19 June, 2021",7,TG624,Felege  Mayat,,Tigray,ET01,South Eastern,ET0106,Enderta,ET010602,39.4714658,13.6018078,44341,Host community/families,76,Preliminary,,,
"19 June, 2021",7,TG600,Hadush Adi,,Tigray,ET01,North Western,ET0101,Adi Daero,ET010111,38.17542583,14.31294947,44145,Host community/families,7935,Preliminary,,,
"19 June, 2021",7,TG623,Romanat,,Tigray,ET01,South Eastern,ET0106,Enderta,ET010602,39.4240156,13.590992,44275,Host community/families,896,Preliminary,,,
"19 June, 2021",7,TG594,Zone 1,,Tigray,ET01,North Western,ET0101,Adi Daero,ET010111,38.1705917,14.3106648,44145,Host community/families,3974,Preliminary,,,
"19 June, 2021",7,TG595,Zone 2,,Tigray,ET01,North Western,ET0101,Adi Daero,ET010111,38.1707847,14.3151722,44145,Host community/families,3677,Preliminary,,,
"19 June, 2021",7,TG580,Zone 3,,Tigray,ET01,North Western,ET0101,Adi Daero,ET010111,38.1700146,14.3176027,42589,Host community/families,3233,Preliminary,,,
"19 June, 2021",7,TG604,Zone-5,,Tigray,ET01,North Western,ET0101,Adi Daero,ET010111,38.17660842,14.30836937,44145,Host community/families,6399,Preliminary,,,
"18 June, 2021",7,AM314,Dara,,Amhara,ET03,North Gondar,ET0301,Dabat,ET030105,37.7431507,12.921327,44140,Host community/families,289,Preliminary,,,
"18 June, 2021",7,AM305,Wekin,,Amhara,ET03,North Gondar,ET0301,Dabat,ET030105,37.8246989,13.0632541,44145,Host community/families,670,Preliminary,,,
"18 June, 2021",7,AM256,Military Camp,,Amhara,ET03,West Gondar,ET0312,Midre Genet,ET031223,36.461954,13.68875771,44144,Collective Center,377,Preliminary,,,
"18 June, 2021",7,AM255,Wakshem,,Amhara,ET03,West Gondar,ET0312,Midre Genet,ET031223,36.47073511,13.69564617,44139,Open space,370,Preliminary,,,
"18 June, 2021",7,TG576,Awetash Diaspora,,Tigray,ET01,North Western,ET0101,Sheraro town,ET010107,37.7707661,14.3891414,44166,Collective Center,203,Preliminary,,,
"18 June, 2021",7,TG597,Birhan,,Tigray,ET01,North Western,ET0101,Laelay Koraro,ET010109,38.47590255,14.11834708,44153,Host community/families,5602,Preliminary,,,
"18 June, 2021",7,TG614,Debre Kebi'e,,Tigray,ET01,South Eastern,ET0106,Enderta,ET010602,39.659227,13.5551998,44156,Host community/families,108,Preliminary,,,
"18 June, 2021",7,TG621,Derga Ajen,Aragure,Tigray,ET01,South Eastern,ET0106,Enderta,ET010602,39.682912,13.5092466,44341,Host community/families,76,Preliminary,,,
"18 June, 2021",7,TG298,Didiba,,Tigray,ET01,South Eastern,ET0106,Enderta,ET010602,39.53130994,13.35927354,43537,Host community/families,400,Preliminary,,,
"18 June, 2021",7,TG616,Felege Selam,,Tigray,ET01,South Eastern,ET0106,Enderta,ET010602,39.5675264,13.4133555,44190,Host community/families,107,Preliminary,,,
"18 June, 2021",7,TG558,Freweynei primary School,,Tigray,ET01,Eastern,ET0103,Freweyni town,ET010313,39.5749497,14.0546106,44329,Collective Center,1485,Preliminary,yes,IOM,
"18 June, 2021",7,TG265,Gamra,,Tigray,ET01,South Eastern,ET0106,Enderta,ET010602,39.56786939,13.3889773,43414,Host community/families,318,Preliminary,,,
"18 June, 2021",7,TG622,Kedamay Weyane,Ashegoda,Tigray,ET01,South Eastern,ET0106,Enderta,ET010602,39.5520797,13.4252362,44185,Host community/families,364,Preliminary,,,
"18 June, 2021",7,TG301,Lemlem,,Tigray,ET01,South Eastern,ET0106,Enderta,ET010602,39.68471349,13.38534786,43537,Host community/families,215,Preliminary,,,
"18 June, 2021",7,TG285,May-Mekden,,Tigray,ET01,South Eastern,ET0106,Enderta,ET010602,39.567335,13.58212833,43473,Host community/families,2633,Preliminary,,,
"18 June, 2021",7,TG302,Menbere Kidusan,,Tigray,ET01,South Eastern,ET0106,Enderta,ET010602,39.62661759,13.39382844,43537,Host community/families,248,Preliminary,,,
"18 June, 2021",7,TG620,Semha,,Tigray,ET01,South Eastern,ET0106,Enderta,ET010602,39.5970376,13.5012049,44216,Host community/families,766,Preliminary,,,
"18 June, 2021",7,TG628,Tourist Hotel,,Tigray,ET01,Eastern,ET0103,Freweyni town,ET010313,39.5792719,14.0509244,44359,Collective Center,128,Preliminary,,,
"18 June, 2021",7,TG482,Zone 01,,Tigray,ET01,Eastern,ET0103,Freweyni town,ET010313,39.5788811,14.0553116,44159,Host community/families,1582,Preliminary,,,
"18 June, 2021",7,TG481,Zone 02,,Tigray,ET01,Eastern,ET0103,Freweyni town,ET010313,39.5780804,14.052003,44159,Host community/families,2203,Preliminary,,,
"18 June, 2021",7,TG484,Zone 03,,Tigray,ET01,Eastern,ET0103,Freweyni town,ET010313,39.5707681,14.0535651,44159,Host community/families,1515,Preliminary,,,
"18 June, 2021",7,TG485,Zone 04,,Tigray,ET01,Eastern,ET0103,Freweyni town,ET010313,39.573505,14.0524934,44159,Host community/families,1109,Preliminary,,,
"18 June, 2021",7,TG483,Zone 05,,Tigray,ET01,Eastern,ET0103,Freweyni town,ET010313,39.5715162,14.0609877,44159,Host community/families,1871,Preliminary,,,
"17 June, 2021",7,AM470,Deromamay,,Amhara,ET03,North Gondar,ET0301,Dabat,ET030105,37.9096688,12.9521139,44184,Host community/families,230,Preliminary,,,
"17 June, 2021",7,AM471,Defia,,Amhara,ET03,North Gondar,ET0301,Dabat,ET030105,37.8813047,12.9762792,44214,Host community/families,74,Preliminary,,,
"17 June, 2021",7,AM472,Jambelew,,Amhara,ET03,North Gondar,ET0301,Dabat,ET030105,37.8607911,13.0227885,44214,Host community/families,188,Preliminary,,,
"17 June, 2021",7,AM312,Dekua,,Amhara,ET03,North Gondar,ET0301,Dabat,ET030105,37.8396016,13.0397707,44159,Host community/families,259,Preliminary,,,
"17 June, 2021",7,TG615,Abeda,,Tigray,ET01,Southern,ET0104,Emba Alaje,ET010404,39.4497377,12.9091918,44214,Host community/families,221,Preliminary,,,
"17 June, 2021",7,TG475,Belgium Health Post,,Tigray,ET01,Eastern,ET0103,Edaga Hamus town,ET010311,39.564111,14.1834697,44222,Collective Center,81,Preliminary,yes,UNHCR,
"17 June, 2021",7,TG619,EBD Store,Agriculture office Store,Tigray,ET01,South Eastern,ET0106,Adigudom,ET010607,39.51488,13.2433709,44341,Collective Center,670,Preliminary,,,
"17 June, 2021",7,TG476,Edaga Hamus Comprehensive Secondary School,,Tigray,ET01,Eastern,ET0103,Edaga Hamus town,ET010311,39.5651118,14.1873973,44250,Collective Center,169,Preliminary,yes,UNHCR,
"17 June, 2021",7,TG474,Fana Primary School,,Tigray,ET01,Eastern,ET0103,Edaga Hamus town,ET010311,39.5607172,14.1833034,44250,Collective Center,129,Preliminary,yes,UNHCR,
"17 June, 2021",7,TG267,Hawatsu,,Tigray,ET01,South Eastern,ET0106,Hintalo,ET010603,39.53148455,13.24619745,43449,Host community/families,103,Preliminary,,,
"17 June, 2021",7,TG268,May-Nebri,,Tigray,ET01,South Eastern,ET0106,Hintalo,ET010603,39.49697458,13.13428882,43452,Host community/families,251,Preliminary,,,
"17 June, 2021",7,TG473,One to Four Elementary School,,Tigray,ET01,Eastern,ET0103,Edaga Hamus town,ET010311,39.5626058,14.1864079,44250,Collective Center,105,Preliminary,,,
"17 June, 2021",7,TG477,Tabia 01,,Tigray,ET01,Eastern,ET0103,Edaga Hamus town,ET010311,39.5642612,14.1870338,44160,Host community/families,3400,Preliminary,,,
"17 June, 2021",7,TG479,Tabia 02,,Tigray,ET01,Eastern,ET0103,Edaga Hamus town,ET010311,39.5614741,14.1880915,44160,Host community/families,2575,Preliminary,,,
"17 June, 2021",7,TG480,Tabia 03,,Tigray,ET01,Eastern,ET0103,Edaga Hamus town,ET010311,39.5610149,14.1824613,44159,Host community/families,5150,Preliminary,,,
"17 June, 2021",7,TG478,Tabia 04,,Tigray,ET01,Eastern,ET0103,Edaga Hamus town,ET010311,39.5606914,14.192428,44160,Host community/families,5875,Preliminary,,,
"17 June, 2021",7,TG279,Tekea,,Tigray,ET01,Southern,ET0104,Emba Alaje,ET010404,39.48605479,12.92160438,43475,Host community/families,781,Preliminary,,,
"16 June, 2021",7,AM464,Ketena 2 Meshha,,Amhara,ET03,Wag Hamra,ET0308,Sahila,ET030806,38.50460631,12.91397632,44183,Host community/families,45,Preliminary,,,
"16 June, 2021",7,AM296,Arbaya Center,,Amhara,ET03,Central Gondar,ET0311,West Belesa,ET031116,37.8270897,12.4769831,44145,Host community/families,225,Preliminary,,,
"16 June, 2021",7,AM467,Abtera,,Amhara,ET03,North Gondar,ET0301,Dabat,ET030105,37.8004213,13.0486936,44185,Host community/families,135,Preliminary,,,
"16 June, 2021",7,AM468,Benker,,Amhara,ET03,North Gondar,ET0301,Dabat,ET030105,37.8004256,13.0486911,44213,Host community/families,122,Preliminary,,,
"16 June, 2021",7,AM469,Charbita,,Amhara,ET03,North Gondar,ET0301,Dabat,ET030105,37.716432,12.9082329,44184,Host community/families,66,Preliminary,,,
"16 June, 2021",7,AM263,Golmasa,Gomata,Amhara,ET03,North Gondar,ET0301,Dabat,ET030105,37.7818836,12.998045,44195,Planned camp/site,1870,Preliminary,,,
"16 June, 2021",7,TG419,Abreha We'atsbha Elementary School,,Tigray,ET01,Central,ET0102,Axum town,ET010213,38.72357615,14.12453467,44153,Collective Center,3000,Preliminary,yes,UNHCR/ANE,
"16 June, 2021",7,TG551,Aksum Full Elementary School,Edaga,Tigray,ET01,Central,ET0102,Axum town,ET010213,38.71567422,14.1238413,44153,Collective Center,3318,Preliminary,yes,UNHCR/ANE,
"16 June, 2021",7,TG420,Araya Kahsu Health  Scinece Collegee,,Tigray,ET01,Central,ET0102,Axum town,ET010213,38.73106721,14.11495552,44153,Collective Center,866,Preliminary,yes,UNHCR/ANE,
"16 June, 2021",7,TG286,Dura,,Tigray,ET01,Central,ET0102,Laelay Maychew,ET010205,38.65500772,14.11140712,43478,Host community/families,1431,Preliminary,,,
"16 June, 2021",7,TG575,Enda Ayer,,Tigray,ET01,Central,ET0102,Axum town,ET010213,38.7125472,14.1223215,44151,Host community/families,39585,Preliminary,,,
"16 June, 2021",7,TG426,Ezana Elementary school,,Tigray,ET01,Central,ET0102,Axum town,ET010213,38.7498077,14.1186262,44149,Collective Center,1689,Preliminary,yes,UNHCR/ANE,
"16 June, 2021",7,TG599,Fkada,,Tigray,ET01,Central,ET0102,Axum town,ET010213,38.72416067,14.12296776,44153,Collective Center,24571,Preliminary,,,
"16 June, 2021",7,TG430,Kedamawi Menelik Secondary school,Weri,Tigray,ET01,Central,ET0102,Axum town,ET010213,38.72297552,14.12062343,44151,Collective Center,939,Preliminary,yes,UNHCR/ANE,
"16 June, 2021",7,TG421,Kindeya Elementary school,,Tigray,ET01,Central,ET0102,Axum town,ET010213,38.73349173,14.11755833,44155,Collective Center,4012,Preliminary,yes,UNHCR/ANE,
"16 June, 2021",7,TG424,Megabit Elementary school,,Tigray,ET01,Central,ET0102,Axum town,ET010213,38.7423434,14.1232539,44147,Collective Center,901,Preliminary,yes,UNHCR/ANE,
"16 June, 2021",7,TG438,Tabia 01,,Tigray,ET01,Eastern,ET0103,Adigrat town,ET010308,39.46384,14.2755405,44159,Host community/families,5965,Preliminary,,,
"16 June, 2021",7,TG439,Tabia 02,,Tigray,ET01,Eastern,ET0103,Adigrat town,ET010308,39.4694832,14.2768602,44159,Host community/families,3275,Preliminary,,,
"16 June, 2021",7,TG442,Tabia 03,,Tigray,ET01,Eastern,ET0103,Adigrat town,ET010308,39.4626862,14.2810433,44159,Host community/families,1637,Preliminary,,,
"16 June, 2021",7,TG440,Tabia 04,,Tigray,ET01,Eastern,ET0103,Adigrat town,ET010308,39.4628206,14.2889629,44159,Host community/families,14093,Preliminary,,,
"16 June, 2021",7,TG441,Tabia 05,,Tigray,ET01,Eastern,ET0103,Adigrat town,ET010308,39.4602024,14.2834506,44159,Host community/families,4912,Preliminary,,,
"16 June, 2021",7,TG437,Tabia 06,,Tigray,ET01,Eastern,ET0103,Adigrat town,ET010308,39.4601931,14.2742594,44159,Host community/families,11054,Preliminary,,,
"16 June, 2021",7,TG422,Tatus Elementary school,,Tigray,ET01,Central,ET0102,Axum town,ET010213,38.72673412,14.11805969,44155,Collective Center,1015,Preliminary,yes,UNHCR/ANE,
"16 June, 2021",7,TG603,Tsli'a,,Tigray,ET01,Central,ET0102,Axum town,ET010213,38.75190248,14.12096367,44153,Host community/families,35975,Preliminary,,,
"15 June, 2021",7,TG409,Adi Mahleka Elementary school,,Tigray,ET01,Central,ET0102,Adwa town,ET010212,38.88850937,14.16330506,44157,Collective Center,10220,Preliminary,,,
"15 June, 2021",7,TG545,Agazi,01 Kebele,Tigray,ET01,Southern,ET0104,Maichew town,ET010409,39.5450856,12.7893888,44170,Host community/families,1345,Preliminary,,,
"15 June, 2021",7,TG432,Agazi Primary School,,Tigray,ET01,Eastern,ET0103,Adigrat town,ET010308,39.459126,14.2794418,44171,Collective Center,2072,Preliminary,,,
"15 June, 2021",7,TG203,Baro,,Tigray,ET01,Southern,ET0104,Raya Azebo,ET010406,39.63049406,12.81011591,43351,Host community/families,293,Preliminary,,,
"15 June, 2021",7,TG172,Chekon,,Tigray,ET01,Southern,ET0104,Raya Azebo,ET010406,39.70166252,12.7233232,43172,Host community/families,836,Preliminary,,,
"15 June, 2021",7,TG589,Debrchi,,Tigray,ET01,Central,ET0102,Adwa town,ET010212,38.9018616,14.161348,44154,Host community/families,19229,Preliminary,,,
"15 June, 2021",7,TG277,Ebo,,Tigray,ET01,Southern,ET0104,Raya Azebo,ET010406,39.69105426,12.84689954,43475,Host community/families,394,Preliminary,,,
"15 June, 2021",7,TG574,Enda Raesi,,Tigray,ET01,Central,ET0102,Axum town,ET010213,38.7197287,14.1283755,44362,Collective Center,120,Preliminary,,,
"15 June, 2021",7,TG436,Finotebirhan Secondary School,,Tigray,ET01,Eastern,ET0103,Adigrat town,ET010308,39.4574082,14.2784694,44171,Collective Center,12178,Preliminary,yes,UNHCR,
"15 June, 2021",7,TG210,Gereb Abo Hagos,,Tigray,ET01,Southern,ET0104,Raya Azebo,ET010406,39.67203923,12.82178116,43350,Host community/families,664,Preliminary,,,
"15 June, 2021",7,TG214,Hatsebo,,Tigray,ET01,Central,ET0102,Laelay Maychew,ET010205,38.75650326,14.11093759,43431,Host community/families,1592,Preliminary,,,
"15 June, 2021",7,TG590,Hayelom,,Tigray,ET01,Central,ET0102,Adwa town,ET010212,38.8842387,14.167353,44154,Host community/families,48015,Preliminary,,,
"15 June, 2021",7,TG547,Hintset,04 Kebele,Tigray,ET01,Southern,ET0104,Maichew town,ET010409,39.5478465,12.7826742,44170,Host community/families,2441,Preliminary,,,
"15 June, 2021",7,TG428,Kaleb Secondary School,,Tigray,ET01,Central,ET0102,Axum town,ET010213,38.71377401,14.11873922,44151,Collective Center,5889,Preliminary,yes,UNHCR/ANE,
"15 June, 2021",7,TG546,Lekatit,03 Kebele,Tigray,ET01,Southern,ET0104,Maichew town,ET010409,39.5414027,12.782501,44172,Host community/families,4084,Preliminary,,,
"15 June, 2021",7,TG434,Meda Agame primary School,,Tigray,ET01,Eastern,ET0103,Adigrat town,ET010308,39.4687988,14.2838018,44171,Collective Center,15830,Preliminary,yes,UNHCR,
"15 June, 2021",7,TG435,Medhanialem Primary School,,Tigray,ET01,Eastern,ET0103,Adigrat town,ET010308,39.4577108,14.2825631,44171,Collective Center,8507,Preliminary,yes,IOM,
"15 June, 2021",7,TG593,Miebale,,Tigray,ET01,Central,ET0102,Adwa town,ET010212,38.894631,14.1665484,44154,Host community/families,92520,Preliminary,,,
"15 June, 2021",7,TG433,Welwalo Primary School,,Tigray,ET01,Eastern,ET0103,Adigrat town,ET010308,39.4686732,14.2834752,44171,Collective Center,4763,Preliminary,yes,IOM,
"15 June, 2021",7,TG431,Yalembirhan Preparatory school,,Tigray,ET01,Eastern,ET0103,Adigrat town,ET010308,39.4706419,14.2869048,44171,Collective Center,7233,Preliminary,,,
"14 June, 2021",7,AF291,Haridora,,Afar,ET02,Fanti /Zone 4,ET0204,Yalo,ET020404,39.9195232,12.3878994,44157,Host community/families,1080,Preliminary,,,
"14 June, 2021",7,AF290,Dibina,,Afar,ET02,Fanti /Zone 4,ET0204,Yalo,ET020404,39.8815881,12.3923517,44153,Host community/families,1680,Preliminary,,,
"14 June, 2021",7,AF292,Arbto Ader,,Afar,ET02,Fanti /Zone 4,ET0204,Gulina,ET020405,39.9776896,12.142831,44153,Host community/families,2802,Preliminary,,,
"14 June, 2021",7,AF293,Walae,,Afar,ET02,Fanti /Zone 4,ET0204,Yalo,ET020404,39.9417606,12.4117868,44157,Host community/families,1800,Preliminary,,,
"14 June, 2021",7,AF294,Menafesha,,Afar,ET02,Fanti /Zone 4,ET0204,Yalo,ET020404,39.8773101,12.386688,44157,Host community/families,2400,Preliminary,,,
"14 June, 2021",7,AM313,Talak Mesk,,Amhara,ET03,North Gondar,ET0301,Dabat,ET030105,37.8015939,13.0234568,44147,Host community/families,299,Preliminary,,,
"14 June, 2021",7,AM301,Dabat 01,,Amhara,ET03,North Gondar,ET0301,Dabat town,ET030106,37.7651624,12.9859323,44145,Host community/families,452,Preliminary,,,
"14 June, 2021",7,AM302,Dabat 02,,Amhara,ET03,North Gondar,ET0301,Dabat town,ET030106,37.7691786,12.9845437,44145,Host community/families,606,Preliminary,,,
"14 June, 2021",7,AM303,Dabat 03,,Amhara,ET03,North Gondar,ET0301,Dabat town,ET030106,37.7598148,12.9826195,44145,Host community/families,426,Preliminary,,,
"14 June, 2021",7,AM304,Dabat 04,,Amhara,ET03,North Gondar,ET0301,Dabat town,ET030106,37.7604368,12.979889,44145,Host community/families,254,Preliminary,,,
"14 June, 2021",7,TG415,Adwa Elementary school ,,Tigray,ET01,Central,ET0102,Adwa town,ET010212,38.8960599,14.1705806,44149,Collective Center,5753,Preliminary,,,
"14 June, 2021",7,TG255,Agamat,,Tigray,ET01,Southern,ET0104,Endamehoni,ET010405,39.52553883,12.75093628,43346,Host community/families,423,Preliminary,,,
"14 June, 2021",7,TG188,Ayder,,Tigray,ET01,Southern,ET0104,Endamehoni,ET010405,39.4980517,12.79398572,43205,Host community/families,461,Preliminary,,,
"14 June, 2021",7,TG176,Chinque Majo,,Tigray,ET01,Southern,ET0104,Endamehoni,ET010405,39.54377397,12.6957114,43179,Host community/families,302,Preliminary,,,
"14 June, 2021",7,TG190,Dirdir,,Tigray,ET01,Southern,ET0104,Endamehoni,ET010405,39.56431833,12.70398521,43291,Host community/families,248,Preliminary,,,
"14 June, 2021",7,TG417,Enda Tsion,,Tigray,ET01,Central,ET0102,Adwa town,ET010212,38.8979121,14.1543055,44159,Collective Center,7113,Preliminary,,,
"14 June, 2021",7,TG418,Haleka Teweldemedhn Full Elementary school,,Tigray,ET01,Central,ET0102,Adwa town,ET010212,38.88273176,14.15786926,44159,Collective Center,10326,Preliminary,,,
"14 June, 2021",7,TG410,Korea Secondary school,,Tigray,ET01,Central,ET0102,Adwa town,ET010212,38.88642497,14.158311,44162,Collective Center,3552,Preliminary,,,
"14 June, 2021",7,TG544,Mussie,Tabia 02,Tigray,ET01,Southern,ET0104,Maichew town,ET010409,39.5366686,12.7845856,44149,Host community/families,2121,Preliminary,,,
"14 June, 2021",7,TG413,Ngste Saba Elementary school,,Tigray,ET01,Central,ET0102,Adwa town,ET010212,38.90128446,14.16561053,44160,Collective Center,5360,Preliminary,,,
"14 June, 2021",7,TG549,Ngste Saba No 2 Elementary school,,Tigray,ET01,Central,ET0102,Adwa town,ET010212,38.90792677,14.16499186,44310,Collective Center,6713,Preliminary,,,
"14 June, 2021",7,TG416,Nigste Saba Secondary school,,Tigray,ET01,Central,ET0102,Adwa town,ET010212,38.901261,14.1671344,44146,Collective Center,6713,Preliminary,,,
"14 June, 2021",7,TG618,Simret,,Tigray,ET01,Southern,ET0104,Endamehoni,ET010405,39.5102332,12.7341965,44331,Host community/families,432,Preliminary,,,
"14 June, 2021",7,TG411,Soleda Elementary school,,Tigray,ET01,Central,ET0102,Adwa town,ET010212,38.8868717,14.17687457,44160,Collective Center,4550,Preliminary,,,
"14 June, 2021",7,TG613,Tsibet,,Tigray,ET01,Southern,ET0104,Endamehoni,ET010405,39.5279583,12.8396865,44151,Host community/families,164,Preliminary,,,
"14 June, 2021",7,TG412,Wekma Elementary school,,Tigray,ET01,Central,ET0102,Adwa town,ET010212,38.89560274,14.16944497,44162,Collective Center,611,Preliminary,,,
"13 June, 2021",7,TG423,Aksum Preparatory school,Axum Preparatory school,Tigray,ET01,Central,ET0102,Axum town,ET010213,38.7377656,14.1249773,44150,Collective Center,6587,Preliminary,yes,UNHCR/ANE,
"13 June, 2021",7,TG425,Aksum Secondary school,,Tigray,ET01,Central,ET0102,Axum town,ET010213,38.7381543,14.1249797,44150,Collective Center,795,Preliminary,yes,UNHCR/ANE,
"13 June, 2021",7,TG427,Bazen Elementary School,,Tigray,ET01,Central,ET0102,Axum town,ET010213,38.71014549,14.12418771,44151,Collective Center,4102,Preliminary,yes,UNHCR/ANE,
"13 June, 2021",7,TG223,Guemes,Gormodo,Tigray,ET01,Eastern,ET0103,Tsaeda Emba,ET010314,39.5941805,14.0108898,43369,Host community/families,1274,Preliminary,,,
"13 June, 2021",7,TG548,Hawelti,,Tigray,ET01,Southern,ET0104,Mekhoni town,ET010412,39.6456677,12.8038624,44145,Host community/families,1033,Preliminary,,,
"13 June, 2021",7,TG552,Mahberawi Guday Atsede Hitsanat,,Tigray,ET01,Central,ET0102,Axum town,ET010213,38.72862682,14.11926432,44151,Collective Center,310,Preliminary,yes,UNHCR/ANE,
"13 June, 2021",7,TG118,Marsa,Sanga Tera,Tigray,ET01,Southern,ET0104,Mekhoni town,ET010412,39.643646,12.793052,42606,Host community/families,1367,Preliminary,,,
"13 June, 2021",7,TG230,May Megelta,,Tigray,ET01,Eastern,ET0103,Tsaeda Emba,ET010314,39.5655585,14.093129,43369,Host community/families,6703,Preliminary,,,
"13 June, 2021",7,TG145,Selekleka,,Tigray,ET01,North Western,ET0101,Laelay Koraro,ET010109,38.4723215,14.11338805,42590,Host community/families,6100,Preliminary,,,
"13 June, 2021",7,TG568,Selekleka Full Elementary school,,Tigray,ET01,North Western,ET0101,Laelay Koraro,ET010109,38.48079234,14.11379723,44153,Collective Center,3350,Preliminary,,,
"13 June, 2021",7,TG239,Sendada,Dinglet,Tigray,ET01,Eastern,ET0103,Tsaeda Emba,ET010314,39.5970666,13.9613132,43414,Host community/families,1353,Preliminary,,,
"13 June, 2021",7,TG238,Sinkata,,Tigray,ET01,Eastern,ET0103,Tsaeda Emba,ET010314,39.5864798,14.0495005,43369,Host community/families,4941,Preliminary,,,
"13 June, 2021",7,TG193,Wukro Maray,,Tigray,ET01,Central,ET0102,Tahtay Mayechew,ET010206,38.59198043,14.12299502,42602,Host community/families,9471,Preliminary,,,
"12 June, 2021",7,AF134,Tonsa,,Afar,ET02,Kilbati /Zone2,ET0202,Megale,ET020204,39.83180267,12.95526989,44151,Host community/families,5328,Preliminary,,,
"12 June, 2021",7,AF299,Abala town,Daar ada,Afar,ET02,Kilbati /Zone2,ET0202,Abaala,ET020203,39.7532409,13.3617121,44183,Host community/families,4982,Preliminary,,,
"12 June, 2021",7,AF300,Namma da'arih fan,,Afar,ET02,Kilbati /Zone2,ET0202,Abaala,ET020203,39.8070184,13.1710428,44182,Spontaneous camp/site,2466,Preliminary,,,
"12 June, 2021",7,AM295,Amba Giorgis 01,,Amhara,ET03,Central Gondar,ET0311,Wegera,ET031109,37.6274932,12.7663891,44154,Host community/families,248,Preliminary,,,
"12 June, 2021",7,TG256,Atsela,,Tigray,ET01,Southern,ET0104,Emba Alaje,ET010404,39.52573203,12.92923871,43346,Host community/families,641,Preliminary,,,
"12 June, 2021",7,TG278,Ayba,,Tigray,ET01,Southern,ET0104,Emba Alaje,ET010404,39.5325489,12.89293001,43475,Host community/families,866,Preliminary,,,
"12 June, 2021",7,TG177,Degua Imbahasti,,Tigray,ET01,Southern,ET0104,Endamehoni,ET010405,39.55151033,12.83786749,43150,Host community/families,237,Preliminary,,,
"12 June, 2021",7,TG570,Egri Albe,,Tigray,ET01,Southern,ET0104,Emba Alaje,ET010404,39.4753787,12.9571086,44189,Host community/families,163,Preliminary,,,
"12 June, 2021",7,TG540,Etek,,Tigray,ET01,Southern,ET0104,Emba Alaje,ET010404,39.5152745,12.935189,44185,Host community/families,437,Preliminary,,,
"12 June, 2021",7,TG541,Ginbot 20,,Tigray,ET01,Southern,ET0104,Emba Alaje,ET010404,39.5109819,12.9389193,44185,Host community/families,705,Preliminary,,,
"12 June, 2021",7,TG269,Hizba Teklehaymanot,,Tigray,ET01,Southern,ET0104,Endamehoni,ET010405,39.55161284,12.79853018,43448,Host community/families,328,Preliminary,,,
"12 June, 2021",7,TG571,Keyh Tekli,,Tigray,ET01,Southern,ET0104,Emba Alaje,ET010404,39.4549313,12.9795558,44189,Host community/families,453,Preliminary,,,
"12 June, 2021",7,TG539,Lekatit,,Tigray,ET01,Southern,ET0104,Emba Alaje,ET010404,39.517804,12.9336798,44185,Host community/families,852,Preliminary,,,
"12 June, 2021",7,TG542,Maebel,,Tigray,ET01,Southern,ET0104,Emba Alaje,ET010404,39.5160572,12.9366762,44185,Host community/families,984,Preliminary,,,
"12 June, 2021",7,TG572,Sesat,,Tigray,ET01,Southern,ET0104,Emba Alaje,ET010404,39.5720912,12.9246008,44159,Host community/families,424,Preliminary,,,
"12 June, 2021",7,TG543,Weyin,,Tigray,ET01,Southern,ET0104,Emba Alaje,ET010404,39.5176599,12.9347886,44185,Host community/families,490,Preliminary,,,
"11 June, 2021",7,AM311,Mkenjie,,Amhara,ET03,Wag Hamra,ET0308,Tsagbeji,ET030808,39.20888701,12.70404008,44191,Host community/families,340,Preliminary,,,
"11 June, 2021",7,AM461,Tekil Dingay 01,,Amhara,ET03,Central Gondar,ET0311,Lay Armacho,ET031108,37.4175217,12.7456671,44237,Host community/families,192,Preliminary,,,
"11 June, 2021",7,TG587,Adi Abeza,,Tigray,ET01,North Western,ET0101,Tahtay Koraro,ET010104,38.400045,14.0670754,44153,Host community/families,179,Preliminary,,,
"11 June, 2021",7,TG586,Adi Golo,,Tigray,ET01,North Western,ET0101,Tahtay Koraro,ET010104,38.38779836,14.0559131,44153,Host community/families,117,Preliminary,,,
"11 June, 2021",7,TG596,Adi Keshi,,Tigray,ET01,North Western,ET0101,Tahtay Koraro,ET010104,38.37923629,14.03684373,44153,Host community/families,113,Preliminary,,,
"11 June, 2021",7,TG445,Agazi,,Tigray,ET01,Eastern,ET0103,Wukro town,ET010309,39.5992655,13.7859152,44186,Host community/families,2473,Preliminary,yes,UNHCR,
"11 June, 2021",7,TG276,Betmera,,Tigray,ET01,South Eastern,ET0106,Hintalo,ET010603,39.5293217,13.0199763,43475,Host community/families,1096,Preliminary,,,
"11 June, 2021",7,TG573,Chegu'arde,,Tigray,ET01,North Western,ET0101,Tahtay Koraro,ET010104,38.3720789,14.0295538,44166,Host community/families,101,Preliminary,,,
"11 June, 2021",7,TG444,Dedebit,,Tigray,ET01,Eastern,ET0103,Wukro town,ET010309,39.6028397,13.7947831,44183,Host community/families,1531,Preliminary,,,
"11 June, 2021",7,TG446,Hayelom,,Tigray,ET01,Eastern,ET0103,Wukro town,ET010309,39.5983064,13.7770248,44186,Host community/families,1650,Preliminary,,,
"11 June, 2021",7,TG253,Hiwane,,Tigray,ET01,South Eastern,ET0106,Hintalo,ET010603,39.4966523,13.109065,43395,Host community/families,736,Preliminary,,,
"11 June, 2021",7,TG491,Kisanet Primary School,,Tigray,ET01,Eastern,ET0103,Wukro town,ET010309,39.59722222,13.78638889,44298,Collective Center,642,Preliminary,yes,IOM,
"11 June, 2021",7,TG579,Laelay Beles,,Tigray,ET01,North Western,ET0101,Tahtay Koraro,ET010104,38.3992816,14.0703892,44166,Host community/families,1290,Preliminary,,,
"11 June, 2021",7,TG588,May Gundo,,Tigray,ET01,North Western,ET0101,Tahtay Koraro,ET010104,38.3896024,14.0604975,44153,Host community/families,122,Preliminary,,,
"11 June, 2021",7,TG602,Meskelo,,Tigray,ET01,North Western,ET0101,Tahtay Koraro,ET010104,38.3974416,14.07659294,44153,Host community/families,153,Preliminary,,,
"11 June, 2021",7,TG443,Mulu Haileslase,,Tigray,ET01,Eastern,ET0103,Wukro town,ET010309,39.6044919,13.7856967,44252,Collective Center,116,Preliminary,,,
"11 June, 2021",7,TG533,Tabia 01,,Tigray,ET01,South Eastern,ET0106,Adigudom,ET010607,39.5144207,13.2491574,44140,Host community/families,1309,Preliminary,,,
"11 June, 2021",7,TG531,Tabia 02,,Tigray,ET01,South Eastern,ET0106,Adigudom,ET010607,39.519289,13.2464799,44140,Host community/families,2003,Preliminary,,,
"11 June, 2021",7,TG530,Tabia 03,Zone 03,Tigray,ET01,South Eastern,ET0106,Adigudom,ET010607,39.5152525,13.2454929,44180,Host community/families,1681,Preliminary,,,
"11 June, 2021",7,TG532,Tabia 04,Zone 04,Tigray,ET01,South Eastern,ET0106,Adigudom,ET010607,39.515089,13.2467327,44180,Host community/families,754,Preliminary,,,
"11 June, 2021",7,TG557,Wukro Preparatory School,,Tigray,ET01,Eastern,ET0103,Wukro town,ET010309,39.5974172,13.7869149,44307,Collective Center,415,Preliminary,yes,IOM,
"11 June, 2021",7,TG490,Wukro Secondary School,,Tigray,ET01,Eastern,ET0103,Wukro town,ET010309,39.59694444,13.78833333,44295,Collective Center,371,Preliminary,yes,IOM,
"11 June, 2021",7,TG488,Zone 03,,Tigray,ET01,Eastern,ET0103,Agulae,ET010316,39.59333333,13.69111111,44198,Host community/families,1331,Preliminary,,,
"11 June, 2021",7,TG489,Zone 04,,Tigray,ET01,Eastern,ET0103,Agulae,ET010316,39.59277778,13.68777778,44198,Host community/families,569,Preliminary,,,
"10 June, 2021",7,AM306,Amdework Area,,Amhara,ET03,Wag Hamra,ET0308,Dehana,ET030803,38.71651394,12.4320125,44180,Host community/families,227,Preliminary,,,
"10 June, 2021",7,AM466,Bribira,,Amhara,ET03,Wag Hamra,ET0308,Dehana,ET030803,38.8059241,12.4350321,44153,Host community/families,81,Preliminary,,,
"10 June, 2021",7,AM465,Chila,,Amhara,ET03,Wag Hamra,ET0308,Dehana,ET030803,38.8410378,12.4455832,44147,Host community/families,125,Preliminary,,,
"10 June, 2021",7,AM294,Gedebiye,,Amhara,ET03,Central Gondar,ET0311,Wegera,ET031109,37.7397759,12.8748834,44154,Host community/families,426,Preliminary,,,
"10 June, 2021",7,AM317,Mekara,,Amhara,ET03,North Gondar,ET0301,Debark,ET030104,37.8845828,13.1247533,44174,Host community/families,94,Preliminary,,,
"10 June, 2021",7,TG465,Adi Ambulu,,Tigray,ET01,North Western,ET0101,Tahtay Koraro,ET010104,38.2712761,14.1164039,44149,Host community/families,175,Preliminary,,,
"10 June, 2021",7,TG522,Adi Hano,,Tigray,ET01,North Western,ET0101,Tahtay Koraro,ET010104,38.28431987,14.13574148,44149,Host community/families,1042,Preliminary,,,
"10 June, 2021",7,TG518,Adikokob,,Tigray,ET01,North Western,ET0101,Tahtay Koraro,ET010104,38.238061,14.2121447,44145,Host community/families,1876,Preliminary,,,
"10 June, 2021",7,TG464,Endaslase,,Tigray,ET01,North Western,ET0101,Tahtay Koraro,ET010104,38.2869149,14.0804512,44145,Host community/families,1906,Preliminary,,,
"10 June, 2021",7,TG523,Kumel,,Tigray,ET01,North Western,ET0101,Tahtay Koraro,ET010104,38.3098921,14.16170251,44149,Host community/families,1865,Preliminary,,,
"10 June, 2021",7,TG524,May Gaei,,Tigray,ET01,North Western,ET0101,Tahtay Koraro,ET010104,38.31662205,14.1834892,44149,Host community/families,1767,Preliminary,,,
"10 June, 2021",7,TG528,Sekare,,Tigray,ET01,North Western,ET0101,Tahtay Koraro,ET010104,38.32257905,14.15340525,44149,Host community/families,4753,Preliminary,,,
"10 June, 2021",7,TG514,Semema,,Tigray,ET01,North Western,ET0101,Tahtay Koraro,ET010104,38.34491763,14.19836338,44149,Host community/families,2453,Preliminary,,,
"10 June, 2021",7,TG529,Werke Amba,,Tigray,ET01,North Western,ET0101,Tahtay Koraro,ET010104,38.2507734,14.18917761,44149,Host community/families,386,Preliminary,,,
"10 June, 2021",7,TG486,Zone 01,,Tigray,ET01,Eastern,ET0103,Agulae,ET010316,39.585,13.77555556,44198,Host community/families,1844,Preliminary,,,
"10 June, 2021",7,TG487,Zone 02,,Tigray,ET01,Eastern,ET0103,Agulae,ET010316,39.58833333,13.69388889,44198,Host community/families,1766,Preliminary,,,
"9 June, 2021",7,AM463,Budin 7 Tsitsika,,Amhara,ET03,Wag Hamra,ET0308,Zequala,ET030801,38.79778133,12.78159571,44143,Host community/families,110,Preliminary,,,
"9 June, 2021",7,TG527,Aba Sege,,Tigray,ET01,North Western,ET0101,Tahtay Koraro,ET010104,38.22952458,14.06480497,44149,Host community/families,1228,Preliminary,,,
"9 June, 2021",7,TG467,Adebezut,,Tigray,ET01,North Western,ET0101,Tahtay Koraro,ET010104,38.26596315,14.1032221,44149,Host community/families,522,Preliminary,,,
"9 June, 2021",7,TG308,Brhan,,Tigray,ET01,North Western,ET0101,Tsimbla,ET010113,38.23760945,13.95631002,43563,Host community/families,7811,Preliminary,,,
"9 June, 2021",7,TG468,Chumay,,Tigray,ET01,North Western,ET0101,Tahtay Koraro,ET010104,38.25991624,14.08654162,44159,Host community/families,1675,Preliminary,,,
"9 June, 2021",7,TG469,Enda Aba'aron,,Tigray,ET01,North Western,ET0101,Tahtay Koraro,ET010104,38.2866044,14.07745114,44149,Host community/families,1575,Preliminary,,,
"9 June, 2021",7,TG566,Endabaguna Screening center 1,,Tigray,ET01,North Western,ET0101,Endabaguna town,ET010114,38.1827583,13.9394515,44153,Collective Center,15059,Preliminary,,,
"9 June, 2021",7,TG565,Endabaguna Screening center 2,,Tigray,ET01,North Western,ET0101,Endabaguna town,ET010114,38.1822515,13.9394265,44327,Collective Center,14064,Preliminary,,,
"9 June, 2021",7,TG521,Gizgzya,,Tigray,ET01,North Western,ET0101,Tahtay Koraro,ET010104,38.2164323,14.0190112,44149,Host community/families,1267,Preliminary,,,
"9 June, 2021",7,TG517,Gubale,,Tigray,ET01,North Western,ET0101,Tahtay Koraro,ET010104,38.23380528,14.08328296,44256,Host community/families,1635,Preliminary,,,
"9 June, 2021",7,TG453,Kebele 02,,Tigray,ET01,North Western,ET0101,Endabaguna town,ET010114,38.181408,13.9459455,44153,Host community/families,6664,Preliminary,,,
"9 June, 2021",7,TG304,Lemlem,,Tigray,ET01,North Western,ET0101,Tsimbla,ET010113,38.19692402,13.97834306,43563,Host community/families,159,Preliminary,,,
"9 June, 2021",7,TG307,Mizan,,Tigray,ET01,North Western,ET0101,Tsimbla,ET010113,38.20808924,13.79884815,43563,Host community/families,1453,Preliminary,,,
"9 June, 2021",7,TG516,My Demu,,Tigray,ET01,North Western,ET0101,Tahtay Koraro,ET010104,38.20846953,14.08349429,44256,Host community/families,2330,Preliminary,,,
"8 June, 2021",7,AM309,As Ketema 01,,Amhara,ET03,Wag Hamra,ET0308,Gaz Gibla,ET030804,39.01495854,12.4116462,44141,Host community/families,406,Preliminary,,,
"8 June, 2021",7,AM240,Lalkiwu,,Amhara,ET03,Wag Hamra,ET0308,Gaz Gibla,ET030804,39.0316416,12.26590248,43186,Host community/families,54,Preliminary,,,
"8 June, 2021",7,AF298,Shahigube,,Afar,ET02,Kilbati /Zone2,ET0202,Berahile,ET020205,39.8899238,13.6903566,44142,Collective Center,820,Preliminary,,,
"8 June, 2021",7,AF326,Tayabora,Animal health center,Afar,ET02,Kilbati /Zone2,ET0202,Berahile,ET020205,40.0057844,13.8364057,44189,Host community/families,555,Preliminary,,,
"8 June, 2021",7,TG520,Adi Hareshay,,Tigray,ET01,North Western,ET0101,Tahtay Koraro,ET010104,38.3495661,14.0694737,44145,Host community/families,492,Preliminary,,,
"8 June, 2021",7,TG463,Adi Nekas Adgi,,Tigray,ET01,North Western,ET0101,Tahtay Koraro,ET010104,38.3236179,14.1140952,44148,Collective Center,675,Preliminary,,,
"8 June, 2021",7,TG462,Areada,,Tigray,ET01,North Western,ET0101,Tahtay Koraro,ET010104,38.3124172,14.1171611,44145,Collective Center,1148,Preliminary,,,
"8 June, 2021",7,TG508,Midregenet Secondary School,,Tigray,ET01,North Western,ET0101,Indasilassie town,ET010108,38.27988293,14.0856802,44276,Collective Center,5763,Preliminary,yes,IOM,
"8 June, 2021",7,TG519,Selam Town,,Tigray,ET01,North Western,ET0101,Tahtay Koraro,ET010104,38.3367961,14.0772339,44149,Host community/families,503,Preliminary,,,
"7 June, 2021",7,AM307,Niruak 01,,Amhara,ET03,Wag Hamra,ET0308,Abergele (AM),ET030805,38.98349853,13.04510535,44142,Host community/families,1277,Preliminary,,,
"7 June, 2021",7,AF215,Uruh,Hodiyo,Afar,ET02,Kilbati /Zone2,ET0202,Kunneba,ET020202,39.8492756,13.8809282,44144,Host community/families,2145,Preliminary,,,
"7 June, 2021",7,AF305,Wahdes,,Afar,ET02,Kilbati /Zone2,ET0202,Kunneba,ET020202,39.850273,13.9418196,44146,Host community/families,1315,Preliminary,,,
"7 June, 2021",7,AF328,Alheena,,Afar,ET02,Kilbati /Zone2,ET0202,Kunneba,ET020202,39.8981284,13.9236747,44193,Host community/families,1275,Preliminary,,,
"7 June, 2021",7,AF304,Koneba Town,,Afar,ET02,Kilbati /Zone2,ET0202,Kunneba,ET020202,39.8646684,13.9708442,44144,Host community/families,5740,Preliminary,,,
"7 June, 2021",7,AF303,Faras dage,,Afar,ET02,Kilbati /Zone2,ET0202,Kunneba,ET020202,39.849278,13.8809267,44146,Host community/families,5295,Preliminary,,,
"7 June, 2021",7,AM201,Chew Ber,,Amhara,ET03,North Gondar,ET0301,Addi Arekay,ET030101,37.9545462,13.37044771,44154,Host community/families,216,Preliminary,,,
"7 June, 2021",7,AM299,Malekt,,Amhara,ET03,North Gondar,ET0301,Addi Arekay,ET030101,38.0061437,13.4016319,44146,Host community/families,210,Preliminary,,,
"7 June, 2021",7,AM297,Teta,,Amhara,ET03,North Gondar,ET0301,Addi Arekay,ET030101,38.0507104,13.4332681,44145,Host community/families,140,Preliminary,,,
"7 June, 2021",7,AM262,Kuas Meda,Addi Arekay youth center,Amhara,ET03,North Gondar,ET0301,Addi Arekay,ET030101,38.0579694,13.4488789,44175,Collective Center,100,Preliminary,,,
"7 June, 2021",7,AM257,Addi Arekay Town,,Amhara,ET03,North Gondar,ET0301,Addi Arekay,ET030101,38.0597733,13.4478187,44156,Host community/families,1559,Preliminary,,,
"7 June, 2021",7,AM298,Addi Arekay 02,,Amhara,ET03,North Gondar,ET0301,Addi Arekay,ET030101,38.0597767,13.4480641,44145,Host community/families,952,Preliminary,,,
"7 June, 2021",7,TG515,Adi Achamo,,Tigray,ET01,North Western,ET0101,Tahtay Koraro,ET010104,38.36736246,14.08336183,44256,Host community/families,1205,Preliminary,,,
"7 June, 2021",7,TG525,Adi Gdad,,Tigray,ET01,North Western,ET0101,Tahtay Koraro,ET010104,38.34441057,14.07604134,44149,Host community/families,657,Preliminary,,,
"7 June, 2021",7,TG466,Adi Kumbro,,Tigray,ET01,North Western,ET0101,Tahtay Koraro,ET010104,38.32040695,14.11841476,44149,Host community/families,454,Preliminary,,,
"7 June, 2021",7,TG526,Bar Semeke,,Tigray,ET01,North Western,ET0101,Tahtay Koraro,ET010104,38.35992034,14.08057651,44149,Host community/families,515,Preliminary,,,
"7 June, 2021",7,TG457,Fre Swuat Secondary school,,Tigray,ET01,North Western,ET0101,Indasilassie town,ET010108,38.301855,14.1064036,44145,Collective Center,6609,Preliminary,yes,IOM,
"7 June, 2021",7,TG470,May Gushela,,Tigray,ET01,North Western,ET0101,Tahtay Koraro,ET010104,38.32726754,14.10014751,44149,Host community/families,900,Preliminary,,,
"7 June, 2021",7,TG461,May Siye,,Tigray,ET01,North Western,ET0101,Tahtay Koraro,ET010104,38.32081794,14.10811432,44149,Host community/families,592,Preliminary,,,
"7 June, 2021",7,TG455,Tsehaye Elementary school,,Tigray,ET01,North Western,ET0101,Indasilassie town,ET010108,38.2889677,14.1063274,44149,Collective Center,7862,Preliminary,yes,IOM,
"6 June, 2021",7,AF198,Doroba,,Afar,ET02,Kilbati /Zone2,ET0202,Dalol,ET020206,39.8550913,14.1901931,44155,Host community/families,1723,Preliminary,,,
"6 June, 2021",7,AF197,Adkuwa (center),,Afar,ET02,Kilbati /Zone2,ET0202,Dalol,ET020206,39.9189305,14.2142474,44167,Host community/families,3602,Preliminary,,,
"6 June, 2021",7,AF301,Asgolo,,Afar,ET02,Kilbati /Zone2,ET0202,Dalol,ET020206,39.9020732,14.2184324,44154,Host community/families,1593,Preliminary,,,
"6 June, 2021",7,AM261,Zarima Adarash,,Amhara,ET03,North Gondar,ET0301,Addi Arekay,ET030101,37.88138513,13.34115864,44151,Collective Center,160,Preliminary,,,
"6 June, 2021",7,AM300,Meka Area,,Amhara,ET03,North Gondar,ET0301,Addi Arekay,ET030101,37.854023,13.3207141,44147,Host community/families,291,Preliminary,,,
"6 June, 2021",7,AM260,Zarima Center,Zarima Zuria,Amhara,ET03,North Gondar,ET0301,Addi Arekay,ET030101,37.87945914,13.34165459,44151,Host community/families,3292,Preliminary,,,
"5 June, 2021",7,AM310,Sriael,,Amhara,ET03,Wag Hamra,ET0308,Sekota,ET030802,38.96736643,12.7399416,44153,Host community/families,261,Preliminary,,,
"5 June, 2021",7,AF296,Erebti (center),,Afar,ET02,Kilbati /Zone2,ET0202,Erebti,ET020201,40.00147448,13.25668972,44151,Host community/families,2400,Preliminary,,,
"5 June, 2021",7,TG458,Adi Wenfito Elementary school,,Tigray,ET01,North Western,ET0101,Indasilassie town,ET010108,38.29456978,14.10364446,44263,Collective Center,792,Preliminary,yes,UNHCR/ANE,
"5 June, 2021",7,TG459,ARRA Zuria,,Tigray,ET01,North Western,ET0101,Indasilassie town,ET010108,38.28586132,14.11025156,44269,Collective Center,576,Preliminary,yes,UNHCR/ANE,
"5 June, 2021",7,TG460,Dehab Tesfay Women's Tranning Center,,Tigray,ET01,North Western,ET0101,Indasilassie town,ET010108,38.28121437,14.09577842,44257,Collective Center,684,Preliminary,yes,UNHCR/ANE,
"5 June, 2021",7,TG352,Embadanso Elementary school,,Tigray,ET01,North Western,ET0101,Indasilassie town,ET010108,38.274999,14.10419023,44149,Collective Center,22204,Preliminary,yes,UNHCR/ANE,
"5 June, 2021",7,TG456,Hibret Elemtary School,,Tigray,ET01,North Western,ET0101,Indasilassie town,ET010108,38.2882304,14.0985179,44145,Collective Center,5753,Preliminary,,,
"5 June, 2021",7,TG509,Shire Agricultural College,,Tigray,ET01,North Western,ET0101,Indasilassie town,ET010108,38.29975549,14.11118814,44287,Collective Center,2595,Preliminary,yes,UNHCR/ANE,
"5 June, 2021",7,TG351,Shire General Secondary School,,Tigray,ET01,North Western,ET0101,Indasilassie town,ET010108,38.28684321,14.09860592,44149,Collective Center,4224,Preliminary,yes,UNHCR/ANE,
"4 June, 2021",7,AM308,Sekota Town 02,,Amhara,ET03,Wag Hamra,ET0308,Sekota town,ET030807,39.03439576,12.62402411,44157,Host community/families,250,Preliminary,,,
"4 June, 2021",7,TG512,Adi Kentibay Elementary School,,Tigray,ET01,North Western,ET0101,Indasilassie town,ET010108,38.2738926,14.09208673,44269,Collective Center,16105,Preliminary,yes,UNHCR/ANE,
"4 June, 2021",7,TG369,Adiha,,Tigray,ET01,Mekelle,ET0107,Mekelle,ET010701,39.4451037,13.5288831,44175,Host community/families,7332,Preliminary,,,
"4 June, 2021",7,TG447,Adiha Secondary School,,Tigray,ET01,Mekelle,ET0107,Mekelle,ET010701,39.4568735,13.5244383,44256,Collective Center,1835,Preliminary,yes,IOM,
"4 June, 2021",7,TG511,BGI Elementary School,,Tigray,ET01,North Western,ET0101,Indasilassie town,ET010108,38.2676205,14.1023789,44164,Collective Center,4683,Preliminary,yes,UNHCR/ANE,
"4 June, 2021",7,TG617,Derek Police Tabia,,Tigray,ET01,Mekelle,ET0107,Mekelle,ET010701,39.4681218,13.5063383,44336,Collective Center,161,Preliminary,yes,IOM,
"4 June, 2021",7,TG400,Meserete Elementary School,,Tigray,ET01,Mekelle,ET0107,Mekelle,ET010701,39.4735119,13.5046593,44175,Collective Center,4025,Preliminary,yes,OSSHD/IOM,
"4 June, 2021",7,TG510,Shire Preparatory School,,Tigray,ET01,North Western,ET0101,Indasilassie town,ET010108,38.2749661,14.0999766,44156,Collective Center,19622,Preliminary,yes,UNHCR/ANE,
"4 June, 2021",7,TG513,Wukar Dba Elementary School,,Tigray,ET01,North Western,ET0101,Indasilassie town,ET010108,38.28289934,14.08317969,44276,Collective Center,2160,Preliminary,yes,UNHCR/ANE,
"3 June, 2021",7,TG362,Adi Haki Primary School,,Tigray,ET01,Mekelle,ET0107,Mekelle,ET010701,39.4590922,13.4845041,44163,Collective Center,3987,Preliminary,yes,OSSHD/IOM,
"3 June, 2021",7,TG380,Adi Shumdhun Primary School,,Tigray,ET01,Mekelle,ET0107,Mekelle,ET010701,39.4569562,13.5119528,44161,Collective Center,7054,Preliminary,yes,OSSHD/IOM,
"3 June, 2021",7,TG564,Alene Secondary school,,Tigray,ET01,Mekelle,ET0107,Mekelle,ET010701,39.4803187,13.5010992,44315,Collective Center,2001,Preliminary,yes,UNHCR,
"3 June, 2021",7,TG393,Arategna Kifletor Military Camp,,Tigray,ET01,Mekelle,ET0107,Mekelle,ET010701,39.5461577,13.4779816,44169,Collective Center,155,Preliminary,yes,UNHCR,
"3 June, 2021",7,TG368,Ayder Elementary School,,Tigray,ET01,Mekelle,ET0107,Mekelle,ET010701,39.4693552,13.5115516,44236,Collective Center,1530,Preliminary,yes,IOM,
"3 June, 2021",7,TG395,Debrebirhan Sefer,,Tigray,ET01,Mekelle,ET0107,Mekelle,ET010701,39.5374128,13.4717259,44158,Host community/families,1464,Preliminary,,,
"3 June, 2021",7,TG401,Dedebit,04 Kebele,Tigray,ET01,Mekelle,ET0107,Mekelle,ET010701,39.4752895,13.4998941,44157,Host community/families,2755,Preliminary,,,
"3 June, 2021",7,TG563,Elala Elementary School,,Tigray,ET01,Mekelle,ET0107,Mekelle,ET010701,39.4823392,13.5100202,44322,Collective Center,1190,Preliminary,yes,UNHCR,
"3 June, 2021",7,TG381,Ethio China Friendship Primary School,,Tigray,ET01,Mekelle,ET0107,Mekelle,ET010701,39.4479364,13.5206103,44160,Collective Center,2866,Preliminary,yes,IOM,
"3 June, 2021",7,TG627,Gerebtsedo Complete Elementary school,,Tigray,ET01,Mekelle,ET0107,Mekelle,ET010701,39.4662663,13.5007028,44339,Collective Center,4602,Preliminary,yes,IOM,
"3 June, 2021",7,TG370,Ginbot 20,,Tigray,ET01,Mekelle,ET0107,Mekelle,ET010701,39.472937,13.512238,44185,Host community/families,3001,Preliminary,,,
"3 June, 2021",7,TG397,Industry,06 Kebele,Tigray,ET01,Mekelle,ET0107,Mekelle,ET010701,39.4820796,13.5073181,44167,Host community/families,5393,Preliminary,,,
"3 June, 2021",7,TG394,Karamata,,Tigray,ET01,Mekelle,ET0107,Mekelle,ET010701,39.5441809,13.4798408,44163,Host community/families,1969,Preliminary,,,
"3 June, 2021",7,TG396,Lekatit,05 Kebele,Tigray,ET01,Mekelle,ET0107,Mekelle,ET010701,39.4818218,13.5098401,44149,Host community/families,17707,Preliminary,,,
"3 June, 2021",7,TG450,Lekatit 11 Elementary School,,Tigray,ET01,Mekelle,ET0107,Mekelle,ET010701,39.4823477,13.5168483,44276,Collective Center,1037,Preliminary,yes,IOM,
"3 June, 2021",7,TG448,Lekatit 23 Secondary School,,Tigray,ET01,Mekelle,ET0107,Mekelle,ET010701,39.4632582,13.5113802,44275,Collective Center,2455,Preliminary,yes,IOM,
"3 June, 2021",7,TG495,Libanos College,Libanos Kindergarten ,Tigray,ET01,Mekelle,ET0107,Mekelle,ET010701,39.4637905,13.4921199,44288,Collective Center,1290,Preliminary,yes,IOM,
"3 June, 2021",7,TG373,Mariam Dehan,,Tigray,ET01,Mekelle,ET0107,Mekelle,ET010701,39.462632,13.5532477,44185,Host community/families,512,Preliminary,,,
"3 June, 2021",7,TG372,Marta,,Tigray,ET01,Mekelle,ET0107,Mekelle,ET010701,39.4668743,13.5162295,44190,Host community/families,6763,Preliminary,,,
"3 June, 2021",7,TG494,May Shibti,,Tigray,ET01,Mekelle,ET0107,Mekelle,ET010701,39.5057811,13.4818153,44284,Host community/families,417,Preliminary,,,
"3 June, 2021",7,TG399,Meles,Lachi,Tigray,ET01,Mekelle,ET0107,Mekelle,ET010701,39.4942459,13.5330588,44154,Host community/families,30955,Preliminary,,,
"3 June, 2021",7,TG492,Mesebo Secondary School,,Tigray,ET01,Mekelle,ET0107,Mekelle,ET010701,39.500151,13.5343815,44266,Collective Center,3871,Preliminary,yes,IOM,
"3 June, 2021",7,TG398,Mesfin,07 Kebele,Tigray,ET01,Mekelle,ET0107,Mekelle,ET010701,39.4768781,13.4987078,44163,Host community/families,2819,Preliminary,,,
"3 June, 2021",7,TG562,Momona Secondary School,,Tigray,ET01,Mekelle,ET0107,Mekelle,ET010701,39.4450074,13.510092,44314,Collective Center,3331,Preliminary,yes,IOM,
"3 June, 2021",7,TG559,Musie Atsede Hitsanat,Mussie Kindergarten ,Tigray,ET01,Mekelle,ET0107,Mekelle,ET010701,39.4491426,13.522655,44298,Collective Center,164,Preliminary,yes,IOM,
"3 June, 2021",7,TG493,Nebar Ketema,,Tigray,ET01,Mekelle,ET0107,Mekelle,ET010701,39.5490995,13.4857113,44284,Host community/families,630,Preliminary,,,
"3 June, 2021",7,TG371,Sertse,03 Kebele,Tigray,ET01,Mekelle,ET0107,Mekelle,ET010701,39.4733496,13.5045734,44181,Host community/families,2505,Preliminary,,,
"2 June, 2021",7,TG389,Abaselama Kasate Birhan Elementary School,,Tigray,ET01,Mekelle,ET0107,Mekelle,ET010701,39.466239,13.4918666,44205,Collective Center,3001,Preliminary,yes,IOM,
"2 June, 2021",7,TG384,Adi Shumdhun,,Tigray,ET01,Mekelle,ET0107,Mekelle,ET010701,39.4562361,13.510321,44157,Host community/families,17510,Preliminary,,,
"2 June, 2021",7,TG376,Awash,,Tigray,ET01,Mekelle,ET0107,Mekelle,ET010701,39.4601872,13.4691045,44156,Host community/families,18709,Preliminary,,,
"2 June, 2021",7,TG382,Ekram,,Tigray,ET01,Mekelle,ET0107,Mekelle,ET010701,39.4538406,13.5200702,44156,Host community/families,12506,Preliminary,,,
"2 June, 2021",7,TG374,Elshaday Relief and Development Association,Elshadai Relief and Development Association,Tigray,ET01,Mekelle,ET0107,Mekelle,ET010701,39.4748197,13.4524812,44172,Collective Center,4278,Preliminary,yes,IOM,
"2 June, 2021",7,TG452,Hadnet General Secondary School,,Tigray,ET01,Mekelle,ET0107,Mekelle,ET010701,39.463141,13.4710586,44268,Collective Center,9256,Preliminary,,,
"2 June, 2021",7,TG391,Hawelti Secondary School,Fre-Abiyot Secondary School,Tigray,ET01,Mekelle,ET0107,Mekelle,ET010701,39.4626884,13.4917397,44147,Collective Center,3263,Preliminary,yes,IOM,
"2 June, 2021",7,TG386,Hayelom,,Tigray,ET01,Mekelle,ET0107,Mekelle,ET010701,39.4559545,13.4998942,44157,Host community/families,6501,Preliminary,,,
"2 June, 2021",7,TG626,Hiwot Birhan Atsede Hitsanat,,Tigray,ET01,Mekelle,ET0107,Mekelle,ET010701,39.4568044,13.471836,44349,Collective Center,100,Preliminary,yes,UNHCR,
"2 June, 2021",7,TG379,Ketena 02,Yetebaberut Gas Station,Tigray,ET01,Mekelle,ET0107,Mekelle,ET010701,39.4736258,13.4794877,44157,Host community/families,14817,Preliminary,yes,HOP,
"2 June, 2021",7,TG377,Ketena 06,,Tigray,ET01,Mekelle,ET0107,Mekelle,ET010701,39.466561,13.4851805,44157,Host community/families,1164,Preliminary,,,
"2 June, 2021",7,TG361,Kisanet Primary School,,Tigray,ET01,Mekelle,ET0107,Mekelle,ET010701,39.4596475,13.4727602,44142,Collective Center,3717,Preliminary,yes,OSSHD/IOM,
"2 June, 2021",7,TG378,Limat,,Tigray,ET01,Mekelle,ET0107,Mekelle,ET010701,39.4871865,13.4580683,44157,Host community/families,2120,Preliminary,,,
"2 June, 2021",7,TG561,Mayweynei Primary school,Maygebel,Tigray,ET01,Mekelle,ET0107,Mekelle,ET010701,39.4633453,13.4729343,44315,Collective Center,6536,Preliminary,yes,UNHCR,
"2 June, 2021",7,TG375,Mekaih,,Tigray,ET01,Mekelle,ET0107,Mekelle,ET010701,39.4361819,13.4551543,44163,Host community/families,1459,Preliminary,,,
"2 June, 2021",7,TG451,Mekelle Health Center,,Tigray,ET01,Mekelle,ET0107,Mekelle,ET010701,39.4721299,13.4877917,44276,Collective Center,445,Preliminary,yes,UNHCR,
"2 June, 2021",7,TG385,Momona,,Tigray,ET01,Mekelle,ET0107,Mekelle,ET010701,39.4515367,13.5061451,44157,Host community/families,4002,Preliminary,,,
"2 June, 2021",7,TG383,Selam,,Tigray,ET01,Mekelle,ET0107,Mekelle,ET010701,39.4646154,13.4969734,44157,Host community/families,9501,Preliminary,,,
"1 June, 2021",7,AM462,Walqan,,Amhara,ET03,Wag Hamra,ET0308,Sekota,ET030802,39.15031485,12.46111732,44179,Host community/families,90,Preliminary,,,
"1 June, 2021",7,TG388,Selam,,Tigray,ET01,Mekelle,ET0107,Mekelle,ET010701,39.4695405,13.4958823,44170,Host community/families,3649,Preliminary,,,
"1 June, 2021",7,TG390,Walta,09 Kebele,Tigray,ET01,Mekelle,ET0107,Mekelle,ET010701,39.4776208,13.4900154,44165,Host community/families,3958,Preliminary,,,
"1 June, 2021",7,TG392,Zeslase,16 Kebele,Tigray,ET01,Mekelle,ET0107,Mekelle,ET010701,39.4728624,13.4908943,44173,Host community/families,1242,Preliminary,,,
"31 May, 2021",7,TG387,Hareya,,Tigray,ET01,Mekelle,ET0107,Mekelle,ET010701,39.4683063,13.4951114,44167,Host community/families,6901,Preliminary,,,
"31 May, 2021",7,TG365,Industry Park,,Tigray,ET01,Mekelle,ET0107,Mekelle,ET010701,39.4170534,13.4968755,44156,Host community/families,1735,Preliminary,,,
"31 May, 2021",7,TG363,Ketena 03,Enda Abune Aregawi,Tigray,ET01,Mekelle,ET0107,Mekelle,ET010701,39.4611469,13.4851123,44156,Host community/families,8674,Preliminary,,,
"31 May, 2021",7,TG366,Ketena 04,,Tigray,ET01,Mekelle,ET0107,Mekelle,ET010701,39.4577131,13.479987,44156,Host community/families,6940,Preliminary,,,
"31 May, 2021",7,TG364,Ketena 08,Edaga Adi Hawsi,Tigray,ET01,Mekelle,ET0107,Mekelle,ET010701,39.4554562,13.4765328,44157,Host community/families,12143,Preliminary,,,
"31 May, 2021",7,TG367,Tsinat Weyane,,Tigray,ET01,Mekelle,ET0107,Mekelle,ET010701,39.4497844,13.4799525,44157,Host community/families,5804,Preliminary,,,
"16 May, 2021",6,TG553,Abiyiadi  College of Education Teachers,,Tigray,ET01,Central,ET0102,Abi Adi town,ET010211,38.9777532,13.6343419,44267,Collective Center,5554,Preliminary,,,
"16 May, 2021",6,TG555,Abiyiadi  Primary school,,Tigray,ET01,Central,ET0102,Abi Adi town,ET010211,39.0025978,13.6202681,44267,Collective Center,1330,Preliminary,,,
"16 May, 2021",6,TG556,Abiyiadi TVET College,,Tigray,ET01,Central,ET0102,Abi Adi town,ET010211,38.9886644,13.6396169,44298,Collective Center,353,Preliminary,,,
"16 May, 2021",6,TG554,Yekatit 10 Elementary school,,Tigray,ET01,Central,ET0102,Abi Adi town,ET010211,38.9943223,13.6180236,44267,Collective Center,1522,Preliminary,,,
"14 May, 2021",6,TG537,Alula,Zone 4,Tigray,ET01,South Eastern,ET0106,Hagere Selam town,ET010605,39.1743255,13.6427669,44168,Host community/families,146,Preliminary,,,
"14 May, 2021",6,TG569,Hagereselam Primary School,,Tigray,ET01,South Eastern,ET0106,Hagere Selam town,ET010605,39.1736999,13.6477228,44318,Collective Center,170,Preliminary,,,
"14 May, 2021",6,TG535,Hayelom,Zone 5,Tigray,ET01,South Eastern,ET0106,Hagere Selam town,ET010605,39.1742615,13.637427,44172,Host community/families,212,Preliminary,,,
"14 May, 2021",6,TG534,Limat,Zone 1,Tigray,ET01,South Eastern,ET0106,Hagere Selam town,ET010605,39.1724123,13.652406,44167,Host community/families,79,Preliminary,,,
"14 May, 2021",6,TG538,Lisanu,Zone 2,Tigray,ET01,South Eastern,ET0106,Hagere Selam town,ET010605,39.1682913,13.6498181,44167,Host community/families,77,Preliminary,,,
"14 May, 2021",6,TG536,Marta,Zone 3,Tigray,ET01,South Eastern,ET0106,Hagere Selam town,ET010605,39.1734077,13.6475016,44168,Host community/families,107,Preliminary,,,
"11 May, 2021",6,AM258,Cafteria,Gomata,Amhara,ET03,North Gondar,ET0301,Debark town,ET030198,37.8972414,13.156563,44152,Transit center/site,3500,Preliminary,,,
"8 May, 2021",6,AM315,Kino Mender 2,,Amhara,ET03,North Gondar,ET0301,Debark,ET030104,37.8844477,13.0793944,44185,Host community/families,256,Preliminary,,,
"8 May, 2021",6,AM237,Diro Gebeya,,Amhara,ET03,North Gondar,ET0301,Debark town,ET030198,37.91024583,13.15881636,44252,Spontaneous camp/site,458,Preliminary,,,
"8 May, 2021",6,AM316,Kino Mender 1,,Amhara,ET03,North Gondar,ET0301,Debark,ET030104,37.8874276,13.1052259,44183,Host community/families,169,Preliminary,,,
"5 May, 2021",6,AM319,Deb Bahir,Wuraba zuria,Amhara,ET03,North Gondar,ET0301,Debark,ET030104,37.891498,13.2403279,44154,Host community/families,868,Preliminary,,,
"5 May, 2021",6,AM318,Ambera,Dimto Zuria,Amhara,ET03,North Gondar,ET0301,Debark,ET030104,37.8560336,13.3028001,44175,Host community/families,457,Preliminary,,,
"11 April, 2021",Round 25,OR261,Site 1,,Oromia,ET04,Jimma,ET0404,Kersa (Jimma),ET040405,37.18445207,7.750638043,1999-03-26 00:00:00,Planned camp/site,164,DTM SA Round 25,,,
"9 April, 2021",Round 25,AM235,Mariyam Minch,,Amhara,ET03,East Gojam,ET0306,Enebse Sarmder,ET030604,38.27272953,10.87188967,2018-11-14 00:00:00,Collective Center,203,DTM SA Round 25,,,
"9 April, 2021",Round 25,AM380,Gibrina Maekel,,Amhara,ET03,North Wello,ET0303,Guba Lafto,ET030307,39.5872889,11.8248332,2021-04-05 00:00:00,Spontaneous camp/site,76,DTM SA Round 25,,,
"8 April, 2021",Round 25,AM269,Abba Libanos Center,,Amhara,ET03,East Gojam,ET0306,Guzamn,ET030610,37.6558762,10.2611375,2020-08-30 00:00:00,Collective Center,594,DTM SA Round 25,,,
"8 April, 2021",Round 25,AM323,Addis Kidam 01,,Amhara,ET03,Awi,ET0309,Fagta Lakoma,ET030905,36.8873239,11.0774476,2020-11-09 00:00:00,Host community/families,85,DTM SA Round 25,,,
"8 April, 2021",Round 25,AM324,Addis Kidam 02,,Amhara,ET03,Awi,ET0309,Fagta Lakoma,ET030905,36.8875882,11.0837272,2020-11-09 00:00:00,Host community/families,122,DTM SA Round 25,,,
"8 April, 2021",Round 25,AM334,Dimama Manguda,,Amhara,ET03,Awi,ET0309,Fagta Lakoma,ET030905,36.8111194,11.1203851,2020-12-09 00:00:00,Host community/families,122,DTM SA Round 25,,,
"8 April, 2021",Round 25,AM357,Yejube 01,,Amhara,ET03,East Gojam,ET0306,Baso Liben,ET030611,37.7462293,10.1543922,2018-11-21 00:00:00,Host community/families,169,DTM SA Round 25,,,
"8 April, 2021",Round 25,AM358,Yejube 02,,Amhara,ET03,East Gojam,ET0306,Baso Liben,ET030611,37.7485337,10.1582068,2019-05-03 00:00:00,Host community/families,109,DTM SA Round 25,,,
"8 April, 2021",Round 25,AM379,Aydefer,Awobay,Amhara,ET03,North Wello,ET0303,Lasta,ET030310,38.9767705,11.904151,2020-10-15 00:00:00,Host community/families,160,DTM SA Round 25,,,
"8 April, 2021",Round 25,AM383,Dibiko,,Amhara,ET03,North Wello,ET0303,Lasta,ET030310,38.9281801,11.8292311,2021-04-08 00:00:00,Host community/families,138,DTM SA Round 25,,,
"8 April, 2021",Round 25,AM393,Wollo Sefer,,Amhara,ET03,South Wello,ET0304,Borena /Debresina,ET030412,38.7560426,10.7523016,2019-02-09 00:00:00,Host community/families,197,DTM SA Round 25,,,
"8 April, 2021",Round 25,AM394,Soye,,Amhara,ET03,South Wello,ET0304,Borena /Debresina,ET030412,38.7439563,10.7601896,2019-02-09 00:00:00,Host community/families,83,DTM SA Round 25,,,
"8 April, 2021",Round 25,AM395,Nono,,Amhara,ET03,South Wello,ET0304,Borena /Debresina,ET030412,38.7523158,10.7410438,2018-09-25 00:00:00,Host community/families,353,DTM SA Round 25,,,
"8 April, 2021",Round 25,AM439,Clinic Sefer,,Amhara,ET03,West Gojam,ET0307,Sekela,ET030705,37.159911,10.8456354,2018-05-30 00:00:00,Host community/families,278,DTM SA Round 25,,,
"7 April, 2021",Round 25,AM178,Gish Abay,,Amhara,ET03,West Gojam,ET0307,Sekela,ET030705,37.20812589,10.98883239,2018-04-15 00:00:00,Host community/families,972,DTM SA Round 25,,,
"7 April, 2021",Round 25,AM200,Kebele 03,,Amhara,ET03,East Gojam,ET0306,Debre Markos town,ET030615,37.72845767,10.34505921,2018-09-29 00:00:00,Host community/families,115,DTM SA Round 25,,,
"7 April, 2021",Round 25,AM250,Stadium,,Amhara,ET03,East Gojam,ET0306,Debre Markos town,ET030615,37.72912907,10.35435041,2020-06-15 00:00:00,Spontaneous camp/site,85,DTM SA Round 25,,,
"7 April, 2021",Round 25,AM276,Geterge,,Amhara,ET03,North Wello,ET0303,Lalibela town,ET030398,39.04931597,12.02963591,2019-08-08 00:00:00,Host community/families,305,DTM SA Round 25,,,
"7 April, 2021",Round 25,AM277,Addis Alem,,Amhara,ET03,North Wello,ET0303,Lalibela town,ET030398,39.05142018,12.01721258,2019-09-16 00:00:00,Host community/families,301,DTM SA Round 25,,,
"7 April, 2021",Round 25,AM278,Tebie Ber,,Amhara,ET03,North Wello,ET0303,Lalibela town,ET030398,39.04926452,12.0345897,2019-09-16 00:00:00,Host community/families,232,DTM SA Round 25,,,
"7 April, 2021",Round 25,AM326,Sigla Teklehaymanot,,Amhara,ET03,Awi,ET0309,Fagta Lakoma,ET030905,37.0376984,11.0732699,2020-12-08 00:00:00,Host community/families,176,DTM SA Round 25,,,
"7 April, 2021",Round 25,AM327,Sigla Dawuna,,Amhara,ET03,Awi,ET0309,Fagta Lakoma,ET030905,36.9912586,11.069878,2021-01-05 00:00:00,Host community/families,256,DTM SA Round 25,,,
"7 April, 2021",Round 25,AM342,Asuhua,,Amhara,ET03,Awi,ET0309,Fagta Lakoma,ET030905,36.9480472,11.1276109,2020-10-09 00:00:00,Host community/families,305,DTM SA Round 25,,,
"7 April, 2021",Round 25,AM352,Fagta Tuji,,Amhara,ET03,Awi,ET0309,Fagta Lakoma,ET030905,37.0393829,11.068493,2021-01-02 00:00:00,Host community/families,217,DTM SA Round 25,,,
"7 April, 2021",Round 25,AM381,Bilbala,,Amhara,ET03,North Wello,ET0303,Lasta,ET030310,38.985691,12.167168,2020-08-16 00:00:00,Host community/families,213,DTM SA Round 25,,,
"7 April, 2021",Round 25,AM382,Shumsheha,,Amhara,ET03,North Wello,ET0303,Lasta,ET030310,38.9846571,11.982439,2018-04-20 00:00:00,Host community/families,174,DTM SA Round 25,,,
"7 April, 2021",Round 25,AM392,Liguama,,Amhara,ET03,South Wello,ET0304,Kelela,ET030413,39.1591172,10.6541938,2020-10-22 00:00:00,Host community/families,133,DTM SA Round 25,,,
"7 April, 2021",Round 25,AM438,Entoto Sefer,,Amhara,ET03,West Gojam,ET0307,Sekela,ET030705,37.2037439,10.9777209,2017-11-02 00:00:00,Host community/families,2112,DTM SA Round 25,,,
"7 April, 2021",Round 25,SN058,Erimich,,SNNP,ET07,Sheka,ET0708,Yeki,ET070803,35.36803888,7.28944803,2018-09-02 00:00:00,Host community/families,1026,DTM SA Round 25,,,
"7 April, 2021",Round 25,SN060,Kubito,,SNNP,ET07,Sheka,ET0708,Yeki,ET070803,35.36826702,7.2579629,2018-08-13 00:00:00,Host community/families,1122,DTM SA Round 25,,,
"7 April, 2021",Round 25,SN063,Fide Wadi,,SNNP,ET07,Sheka,ET0708,Yeki,ET070803,35.51263371,7.22319138,2018-07-30 00:00:00,Dispersed Settlement,1763,DTM SA Round 25,,,
"6 April, 2021",Round 25,AM229,Zemero,,Amhara,ET03,North Shewa (AM),ET0305,Menze Keya Gabriel,ET030521,39.44275292,10.22453487,2018-10-27 00:00:00,Spontaneous camp/site,346,DTM SA Round 25,,,
"6 April, 2021",Round 25,AM246,Degolo 01,,Amhara,ET03,South Wello,ET0304,Jama,ET030414,39.24912014,10.42675949,2019-12-28 00:00:00,Host community/families,331,DTM SA Round 25,,,
"6 April, 2021",Round 25,AM253,Maekele Selema,,Amhara,ET03,North Shewa (AM),ET0305,Menze Gera Midir,ET030505,39.4700245,10.32528031,2020-08-09 00:00:00,Host community/families,200,DTM SA Round 25,,,
"6 April, 2021",Round 25,AM288,Mela Memcha,,Amhara,ET03,South Wello,ET0304,Wereilu town,ET030423,39.43814174,10.58827819,2020-07-01 00:00:00,Host community/families,233,DTM SA Round 25,,,
"6 April, 2021",Round 25,AM333,Ducha Nechela,,Amhara,ET03,Awi,ET0309,Fagta Lakoma,ET030905,36.6945173,11.077418,2020-10-28 00:00:00,Host community/families,328,DTM SA Round 25,,,
"6 April, 2021",Round 25,AM341,Ayijasita,,Amhara,ET03,Awi,ET0309,Fagta Lakoma,ET030905,36.8041219,11.0349712,2020-09-30 00:00:00,Host community/families,127,DTM SA Round 25,,,
"6 April, 2021",Round 25,AM347,Chiguali,,Amhara,ET03,Awi,ET0309,Fagta Lakoma,ET030905,36.7451866,11.0644621,2020-12-07 00:00:00,Host community/families,408,DTM SA Round 25,,,
"6 April, 2021",Round 25,AM366,Nidi,09 kebele,Amhara,ET03,North Shewa (AM),ET0305,Menze Keya Gabriel,ET030521,39.38791505,10.26849161,2019-11-09 00:00:00,Host community/families,390,DTM SA Round 25,,,
"6 April, 2021",Round 25,AM435,Achano,,Amhara,ET03,West Gojam,ET0307,Sekela,ET030705,37.3174639,11.0586402,2017-12-07 00:00:00,Host community/families,488,DTM SA Round 25,,,
"6 April, 2021",Round 25,AM436,Nib washa,Aba Meseret,Amhara,ET03,West Gojam,ET0307,Sekela,ET030705,37.295648,11.0606718,2019-02-03 00:00:00,Dispersed Settlement,523,DTM SA Round 25,,,
"6 April, 2021",Round 25,AM437,Amuse Wenz,,Amhara,ET03,West Gojam,ET0307,Sekela,ET030705,37.3108945,10.9929535,2019-04-08 00:00:00,Host community/families,341,DTM SA Round 25,,,
"6 April, 2021",Round 25,AM455,Finote Selam 02,,Amhara,ET03,West Gojam,ET0307,Finote Selam town,ET030714,37.2625051,10.6827991,2018-10-02 00:00:00,Host community/families,1000,DTM SA Round 25,,,
"6 April, 2021",Round 25,AM459,Shenbekuma Yedefas,,Amhara,ET03,West Gojam,ET0307,Finote Selam town,ET030714,37.2756281,10.6822473,2018-06-22 00:00:00,Host community/families,1489,DTM SA Round 25,,,
"6 April, 2021",Round 25,SN059,Gecha,,SNNP,ET07,Sheka,ET0708,Anderacha,ET070801,35.40232997,7.56078319,2018-07-31 00:00:00,Dispersed Settlement,1068,DTM SA Round 25,,,
"6 April, 2021",Round 25,SN061,Tepi Maekel,,SNNP,ET07,Sheka,ET0708,Yeki,ET070803,35.42342115,7.1973047,2018-07-31 00:00:00,Dispersed Settlement,3227,DTM SA Round 25,,,
"5 April, 2021",Round 25,AM206,Bata Tsebel,,Amhara,ET03,West Gojam,ET0307,Finote Selam town,ET030714,37.24740524,10.68626313,2018-11-06 00:00:00,Collective Center,101,DTM SA Round 25,,,
"5 April, 2021",Round 25,AM208,Abay Minch,,Amhara,ET03,West Gojam,ET0307,Sekela,ET030705,37.20986898,10.98690311,2020-12-29 00:00:00,Host community/families,4567,DTM SA Round 25,,,
"5 April, 2021",Round 25,AM232,Tilili 01,,Amhara,ET03,Awi,ET0309,Guagusa Shikudad,ET030907,37.02063927,10.85158622,2018-11-24 00:00:00,Host community/families,166,DTM SA Round 25,,,
"5 April, 2021",Round 25,AM233,Aguta,,Amhara,ET03,Awi,ET0309,Guagusa Shikudad,ET030907,37.01372235,10.85253417,2018-12-24 00:00:00,Host community/families,224,DTM SA Round 25,,,
"5 April, 2021",Round 25,AM454,Finote Selam 01,Sefer 3,Amhara,ET03,West Gojam,ET0307,Finote Selam town,ET030714,37.2594466,10.6841322,2018-10-08 00:00:00,Host community/families,1033,DTM SA Round 25,,,
"5 April, 2021",Round 25,SN062,Yelobayi,,SNNP,ET07,Sheka,ET0708,Masha,ET070802,35.47313161,7.74852594,2018-08-13 00:00:00,Dispersed Settlement,1983,DTM SA Round 25,,,
"4 April, 2021",Round 25,AM293,Das Ketena 01,,Amhara,ET03,West Gondar,ET0312,Metema,ET031213,36.24610356,12.76275432,2020-07-07 00:00:00,Planned camp/site,342,DTM SA Round 25,,,
"4 April, 2021",Round 25,SO706,Duudahida,,Somali,ET05,Fafan,ET0502,Jigjiga town,ET050293,42.77048763,9.374827942,2018-07-15 00:00:00,Host community/families,1045,DTM SA Round 25,,,
"3 April, 2021",Round 25,AF254,Ardakoba,,Afar,ET02,Awsi /Zone 1,ET0201,Gerani,ET020110,41.16531196,11.19139369,2019-08-15 00:00:00,Spontaneous camp/site,1804,DTM SA Round 25,,,
"3 April, 2021",Round 25,AF255,Erole,,Afar,ET02,Awsi /Zone 1,ET0201,Gerani,ET020110,41.34489128,11.31337007,2019-08-07 00:00:00,Spontaneous camp/site,802,DTM SA Round 25,,,
"3 April, 2021",Round 25,AF256,Gawule,,Afar,ET02,Awsi /Zone 1,ET0201,Gerani,ET020110,41.29599441,11.23720835,2019-08-14 00:00:00,Spontaneous camp/site,2114,DTM SA Round 25,,,
"3 April, 2021",Round 25,AF258,Sabalu,,Afar,ET02,Awsi /Zone 1,ET0201,Gerani,ET020110,41.18050991,11.17871322,2019-08-08 00:00:00,Spontaneous camp/site,1134,DTM SA Round 25,,,
"3 April, 2021",Round 25,AF259,Amora,,Afar,ET02,Awsi /Zone 1,ET0201,Gerani,ET020110,41.39331707,11.23499415,2020-05-22 00:00:00,Spontaneous camp/site,1377,DTM SA Round 25,,,
"3 April, 2021",Round 25,AF260,Erugageta,,Afar,ET02,Awsi /Zone 1,ET0201,Gerani,ET020110,41.21787984,11.32131251,2020-01-24 00:00:00,Spontaneous camp/site,1421,DTM SA Round 25,,,
"3 April, 2021",Round 25,AF311,Asmera,,Afar,ET02,Awsi /Zone 1,ET0201,Gerani,ET020110,41.3954652,11.2348988,2020-08-12 00:00:00,Spontaneous camp/site,641,DTM SA Round 25,,,
"3 April, 2021",Round 25,AM274,Medal Sefer,,Amhara,ET03,North Shewa (AM),ET0305,Ensaro,ET030503,38.91152529,9.799152099,2020-11-26 00:00:00,Host community/families,1211,DTM SA Round 25,,,
"3 April, 2021",Round 25,AM351,Gumdrie,,Amhara,ET03,Awi,ET0309,Dangila,ET030901,36.8638732,11.1850229,2019-10-06 00:00:00,Host community/families,93,DTM SA Round 25,,,
"3 April, 2021",Round 25,AM365,Salaysh,,Amhara,ET03,North Shewa (AM),ET0305,Ensaro,ET030503,38.9057669,9.834360934,2021-04-03 00:00:00,Host community/families,86,DTM SA Round 25,,,
"3 April, 2021",Round 25,AM391,Jari,,Amhara,ET03,South Wello,ET0304,Thehulederie,ET030405,39.6490207,11.3686742,2021-03-31 00:00:00,Collective Center,341,DTM SA Round 25,,,
"3 April, 2021",Round 25,AM441,Filklek,,Amhara,ET03,West Gojam,ET0307,Adete town,ET030799,37.4869348,11.2632659,2019-05-14 00:00:00,Host community/families,196,DTM SA Round 25,,,
"3 April, 2021",Round 25,SO808,Aliofe,,Somali,ET05,Daawa,ET0511,Qada Duma,ET051198,39.55871149,3.460816407,2021-04-02 00:00:00,Host community/families,464,DTM SA Round 25,,,
"2 April, 2021",Round 25,AF244,Gabulle,,Afar,ET02,Awsi /Zone 1,ET0201,Asayita,ET020103,41.41042177,11.57348645,2020-11-02 00:00:00,Dispersed Settlement,1219,DTM SA Round 25,,,
"2 April, 2021",Round 25,AF271,Galatule Buri,,Afar,ET02,Awsi /Zone 1,ET0201,Asayita,ET020103,41.31992113,11.66969752,2020-08-15 00:00:00,Spontaneous camp/site,960,DTM SA Round 25,,,
"2 April, 2021",Round 25,AM247,Fetno,,Amhara,ET03,West Gondar,ET0312,Midre Genet,ET031223,36.47455234,13.69685415,2021-04-02 00:00:00,Collective Center,625,DTM SA Round 25,,,
"2 April, 2021",Round 25,AM251,Medina,,Amhara,ET03,South Wello,ET0304,Argoba,ET030401,40.0225485,10.91998571,2020-01-01 00:00:00,Host community/families,174,DTM SA Round 25,,,
"2 April, 2021",Round 25,AM290,Jida Sefer,,Amhara,ET03,South Wello,ET0304,Argoba,ET030401,40.026694,10.91744469,2020-12-03 00:00:00,Collective Center,261,DTM SA Round 25,,,
"2 April, 2021",Round 25,AM344,Dangila 01,,Amhara,ET03,Awi,ET0309,Dangila,ET030901,36.8418098,11.2577265,2020-10-04 00:00:00,Host community/families,149,DTM SA Round 25,,,
"2 April, 2021",Round 25,AM345,Dangila 02,,Amhara,ET03,Awi,ET0309,Dangila,ET030901,36.8382762,11.261541,2020-11-03 00:00:00,Host community/families,127,DTM SA Round 25,,,
"2 April, 2021",Round 25,AM346,Dangila 04,,Amhara,ET03,Awi,ET0309,Dangila,ET030901,36.840865,11.2611102,2020-11-03 00:00:00,Host community/families,144,DTM SA Round 25,,,
"2 April, 2021",Round 25,AM350,Dangila 05,,Amhara,ET03,Awi,ET0309,Dangila,ET030901,36.8471949,11.2611262,2020-10-04 00:00:00,Host community/families,348,DTM SA Round 25,,,
"2 April, 2021",Round 25,AM363,Weko,,Amhara,ET03,North Shewa (AM),ET0305,Ensaro,ET030503,38.85332496,9.797843313,2020-07-06 00:00:00,Host community/families,120,DTM SA Round 25,,,
"2 April, 2021",Round 25,AM364,Lamgeno,,Amhara,ET03,North Shewa (AM),ET0305,Ensaro,ET030503,38.84401779,9.830125308,2019-01-02 00:00:00,Host community/families,62,DTM SA Round 25,,,
"2 April, 2021",Round 25,AM434,Genet Sefer,,Amhara,ET03,West Gojam,ET0307,Adete town,ET030799,37.4859458,11.2515109,2018-10-04 00:00:00,Host community/families,235,DTM SA Round 25,,,
"2 April, 2021",Round 25,AM440,Kelemo Sefer,,Amhara,ET03,West Gojam,ET0307,Adete town,ET030799,37.4813128,11.2590383,2019-06-01 00:00:00,Host community/families,285,DTM SA Round 25,,,
"2 April, 2021",Round 25,OR1275,Kalmale,,Oromia,ET04,East Hararge,ET0410,Chinaksen,ET041015,42.71559591,9.43480673,2017-09-12 00:00:00,Host community/families,997,DTM SA Round 25,,,
"2 April, 2021",Round 25,SO676,Qadaduma 01,,Somali,ET05,Daawa,ET0511,Qada Duma,ET051198,39.55541018,3.45975357,2018-07-10 00:00:00,Host community/families,637,DTM SA Round 25,,,
"2 April, 2021",Round 25,SO726,Ula-hula,,Somali,ET05,Siti,ET0501,Dembel,ET050102,42.43857689,9.692113412,2019-01-25 00:00:00,Spontaneous camp/site,802,DTM SA Round 25,,,
"2 April, 2021",Round 25,SO744,Teso Ramo,,Somali,ET05,Daawa,ET0511,Qada Duma,ET051198,39.61473909,3.531735297,2018-09-10 00:00:00,Spontaneous camp/site,481,DTM SA Round 25,,,
"1 April, 2021",Round 25,AM188,Addis Zemen Town,,Amhara,ET03,South Gondar,ET0302,Adisezemen town,ET030299,37.78357897,12.12430291,2017-07-07 00:00:00,Host community/families,80,DTM SA Round 25,,,
"1 April, 2021",Round 25,AM270,Gerba,,Amhara,ET03,North Shewa (AM),ET0305,Moretna Jiru,ET030504,39.15252136,9.891345364,2021-01-01 00:00:00,Host community/families,655,DTM SA Round 25,,,
"1 April, 2021",Round 25,AM286,Hamusit Ketena 8,,Amhara,ET03,South Gondar,ET0302,Dera (AM),ET030209,37.56278376,11.78097597,2020-10-12 00:00:00,Host community/families,97,DTM SA Round 25,,,
"1 April, 2021",Round 25,AM331,Gisa 01,,Amhara,ET03,Awi,ET0309,Dangila,ET030901,36.6748996,11.1868584,2020-11-02 00:00:00,Host community/families,613,DTM SA Round 25,,,
"1 April, 2021",Round 25,AM343,Dibaka,,Amhara,ET03,Awi,ET0309,Dangila,ET030901,36.6989273,11.1849553,2020-10-31 00:00:00,Host community/families,281,DTM SA Round 25,,,
"1 April, 2021",Round 25,AM396,Dibe,,Amhara,ET03,South Wello,ET0304,Argoba,ET030401,39.9306122,10.982552,2020-10-15 00:00:00,Host community/families,191,DTM SA Round 25,,,
"1 April, 2021",Round 25,AM397,Fetekoma,,Amhara,ET03,South Wello,ET0304,Argoba,ET030401,39.9104822,10.9668142,2020-12-12 00:00:00,Host community/families,281,DTM SA Round 25,,,
"1 April, 2021",Round 25,AM424,Dikull Kanna,,Amhara,ET03,West Gojam,ET0307,Dega Damot,ET030707,37.6471119,10.8139111,2017-09-26 00:00:00,Host community/families,442,DTM SA Round 25,,,
"1 April, 2021",Round 25,AM425,Ta'eme,,Amhara,ET03,West Gojam,ET0307,Dega Damot,ET030707,37.6466847,10.766777,2019-04-25 00:00:00,Host community/families,476,DTM SA Round 25,,,
"1 April, 2021",Round 25,AM432,Gabriel Sefer,,Amhara,ET03,West Gojam,ET0307,Mecha,ET030704,37.1544393,11.4123011,2018-01-02 00:00:00,Host community/families,283,DTM SA Round 25,,,
"1 April, 2021",Round 25,AM433,Ayer Tena,,Amhara,ET03,West Gojam,ET0307,Mecha,ET030704,37.1626518,11.4168558,2019-02-03 00:00:00,Host community/families,180,DTM SA Round 25,,,
"1 April, 2021",Round 25,AM452,Aklat,Kura Afaf,Amhara,ET03,West Gojam,ET0307,Dega Damot,ET030707,37.621443,10.7924024,2019-05-01 00:00:00,Host community/families,360,DTM SA Round 25,,,
"1 April, 2021",Round 25,AM453,Dingay Ber Silassie,Dingay Ber Silassie,Amhara,ET03,West Gojam,ET0307,Dega Damot,ET030707,37.5985614,10.7379297,2019-03-24 00:00:00,Host community/families,257,DTM SA Round 25,,,
"1 April, 2021",Round 25,DD103,Youth Recreational Center,,Dire Dawa,ET15,Dire Dawa urban,ET1501,Kazira,ET150113,41.85980146,9.60578507,2017-09-10 00:00:00,Collective Center,2220,DTM SA Round 25,,,
"1 April, 2021",Round 25,DD107,Millennium park,,Dire Dawa,ET15,Dire Dawa urban,ET1501,Kazira,ET150113,41.85998018,9.60568624,2017-09-10 00:00:00,Collective Center,2701,DTM SA Round 25,,,
"1 April, 2021",Round 25,SO643,Fayo,,Somali,ET05,Daawa,ET0511,Qada Duma,ET051198,39.56834965,3.48097929,2021-03-15 00:00:00,Host community/families,482,DTM SA Round 25,,,
"1 April, 2021",Round 25,SO671,Boji,,Somali,ET05,Daawa,ET0511,Qada Duma,ET051198,39.51710689,3.550682269,2018-07-08 00:00:00,Host community/families,675,DTM SA Round 25,,,
"31 March, 2021",Round 25,AM322,Alefa Kacha,,Amhara,ET03,Awi,ET0309,Dangila,ET030901,36.6092505,11.1228351,2020-11-01 00:00:00,Host community/families,262,DTM SA Round 25,,,
"31 March, 2021",Round 25,AM330,Gisa Kansen,,Amhara,ET03,Awi,ET0309,Dangila,ET030901,36.6322788,11.158944,2020-10-15 00:00:00,Host community/families,313,DTM SA Round 25,,,
"31 March, 2021",Round 25,AM359,Kebele Sidst,Atse Minilik Adarash,Amhara,ET03,North Shewa (AM),ET0305,Debre Berhan town,ET030520,39.53112115,9.678423965,2019-11-06 00:00:00,Host community/families,3262,DTM SA Round 25,,,
"31 March, 2021",Round 25,AM360,Kebele Sost,Mesjid akababi,Amhara,ET03,North Shewa (AM),ET0305,Debre Berhan town,ET030520,39.53122071,9.674511023,2019-11-06 00:00:00,Host community/families,1082,DTM SA Round 25,,,
"31 March, 2021",Round 25,AM361,Kebele Sebat,,Amhara,ET03,North Shewa (AM),ET0305,Debre Berhan town,ET030520,39.51725894,9.66704558,2019-11-08 00:00:00,Host community/families,2364,DTM SA Round 25,,,
"31 March, 2021",Round 25,AM362,Kebele Zetegn,,Amhara,ET03,North Shewa (AM),ET0305,Debre Berhan town,ET030520,39.51374651,9.660729725,2019-11-08 00:00:00,Host community/families,1389,DTM SA Round 25,,,
"31 March, 2021",Round 25,AM367,Kebele Hulet,02 Condominiam,Amhara,ET03,North Shewa (AM),ET0305,Debre Berhan town,ET030520,39.53657178,9.679041442,2019-11-08 00:00:00,Host community/families,1185,DTM SA Round 25,,,
"31 March, 2021",Round 25,AM390,Awura Godana,,Amhara,ET03,South Gondar,ET0302,Ebenat,ET030201,38.05173002,12.1179681,2020-01-10 00:00:00,Host community/families,114,DTM SA Round 25,,,
"31 March, 2021",Round 25,AM422,Feres Bet Michael,,Amhara,ET03,West Gojam,ET0307,Dega Damot,ET030707,37.5608259,10.870976,2019-04-30 00:00:00,Host community/families,810,DTM SA Round 25,,,
"31 March, 2021",Round 25,AM423,Telim Butila,Telim,Amhara,ET03,West Gojam,ET0307,Dega Damot,ET030707,37.5453635,10.8796934,2018-02-21 00:00:00,Host community/families,1327,DTM SA Round 25,,,
"31 March, 2021",Round 25,AM430,Addis Alem,,Amhara,ET03,West Gojam,ET0307,Debub Achefer,ET030713,36.9471475,11.3575031,2018-04-27 00:00:00,Host community/families,327,DTM SA Round 25,,,
"31 March, 2021",Round 25,AM431,Michael Sefer,,Amhara,ET03,West Gojam,ET0307,Debub Achefer,ET030713,36.9541122,11.359249,2018-06-29 00:00:00,Host community/families,341,DTM SA Round 25,,,
"31 March, 2021",Round 25,AM450,Teter Genbi,Hamus Gebya,Amhara,ET03,West Gojam,ET0307,Dega Damot,ET030707,37.5168304,10.9531463,2019-04-15 00:00:00,Host community/families,1548,DTM SA Round 25,,,
"31 March, 2021",Round 25,AM451,Santima Yeshoh,Delmu,Amhara,ET03,West Gojam,ET0307,Dega Damot,ET030707,37.5377173,10.9237202,2019-04-25 00:00:00,Host community/families,1763,DTM SA Round 25,,,
"31 March, 2021",Round 25,AM458,Gudba Sekela,Mekazen,Amhara,ET03,West Gojam,ET0307,Dega Damot,ET030707,37.5396728,10.903118,2019-05-30 00:00:00,Host community/families,1189,DTM SA Round 25,,,
"31 March, 2021",Round 25,OR1454,Muje ber,,Oromia,ET04,Jimma,ET0404,Gera,ET040408,36.2432676,7.747834,2020-07-07 00:00:00,Dispersed Settlement,703,DTM SA Round 25,,,
"31 March, 2021",Round 25,OR1455,Haro meda,,Oromia,ET04,Jimma,ET0404,Gera,ET040408,36.2492708,7.7454422,2020-07-07 00:00:00,Dispersed Settlement,460,DTM SA Round 25,,,
"31 March, 2021",Round 25,OR677,Daro Baha,,Oromia,ET04,East Hararge,ET0410,Jarso (East Hararghe),ET041002,42.3443018,9.66101452,2017-09-12 00:00:00,Host community/families,1206,DTM SA Round 25,,,
"31 March, 2021",Round 25,SN409,Tifate,,SNNP,ET07,Amaro,ET0721,Amaro,ET072102,37.7903924,5.9064871,2021-03-31 00:00:00,Host community/families,1466,DTM SA Round 25,,,
"31 March, 2021",Round 25,SN410,Yero,,SNNP,ET07,Amaro,ET0721,Amaro,ET072102,37.7479018,5.8809379,2021-03-31 00:00:00,Host community/families,1639,DTM SA Round 25,,,
"31 March, 2021",Round 25,SN428,Tena Taba Sefer,,SNNP,ET07,Kembata Tibaro,ET0703,Kacha Bira,ET070304,37.74894821,7.28399274,2018-07-17 00:00:00,Host community/families,171,DTM SA Round 25,,,
"31 March, 2021",Round 25,SO441,Yaca Gubadle,,Somali,ET05,Korahe,ET0505,Kebridehar,ET050502,44.31914555,7.176158344,2017-01-17 00:00:00,Spontaneous camp/site,612,DTM SA Round 25,,,
"31 March, 2021",Round 25,SO479,Shabeley,,Somali,ET05,Korahe,ET0505,Kebridehar,ET050502,44.2001257,6.972573895,2017-01-01 00:00:00,Host community/families,362,DTM SA Round 25,,,
"31 March, 2021",Round 25,SO554,Gosolaley,,Somali,ET05,Jarar,ET0503,Bilcil-Bur,ET050306,43.29977597,8.242524284,2017-05-10 00:00:00,Spontaneous camp/site,1920,DTM SA Round 25,,,
"31 March, 2021",Round 25,SO555,Arbadhis,,Somali,ET05,Jarar,ET0503,Bilcil-Bur,ET050306,43.27667983,8.157073593,2017-05-10 00:00:00,Spontaneous camp/site,546,DTM SA Round 25,,,
"31 March, 2021",Round 25,SO583,Anole,,Somali,ET05,Korahe,ET0505,Shaygosh,ET050501,44.14093625,7.186936853,2017-06-25 00:00:00,Host community/families,348,DTM SA Round 25,,,
"31 March, 2021",Round 25,SO654,Aw-bare,,Somali,ET05,Liban,ET0509,Deka Suftu,ET050991,39.85814059,5.007495335,2017-08-13 00:00:00,Spontaneous camp/site,2730,DTM SA Round 25,,,
"31 March, 2021",Round 25,SO675,Elkur,,Somali,ET05,Daawa,ET0511,Qada Duma,ET051198,39.65583858,3.807932926,2018-07-08 00:00:00,Host community/families,508,DTM SA Round 25,,,
"31 March, 2021",Round 25,SO699,Walaislaman,,Somali,ET05,Liban,ET0509,Deka Suftu,ET050991,39.87439156,4.956554877,2018-08-23 00:00:00,Spontaneous camp/site,692,DTM SA Round 25,,,
"31 March, 2021",Round 25,SO735,Harshilmi,,Somali,ET05,Daawa,ET0511,Qada Duma,ET051198,39.65087235,3.644987807,2019-02-05 00:00:00,Host community/families,647,DTM SA Round 25,,,
"31 March, 2021",Round 25,SO778,Buralan,,Somali,ET05,Liban,ET0509,Deka Suftu,ET050991,39.95030821,4.96817024,2020-02-25 00:00:00,Spontaneous camp/site,702,DTM SA Round 25,,,
"30 March, 2021",Round 25,AM175,Harbu 02,,Amhara,ET03,South Wello,ET0304,Kalu,ET030407,39.78926441,10.91021096,2017-08-15 00:00:00,Host community/families,469,DTM SA Round 25,,,
"30 March, 2021",Round 25,AM176,Harbu 01,,Amhara,ET03,South Wello,ET0304,Kalu,ET030407,39.78553743,10.92408753,2017-08-15 00:00:00,Host community/families,305,DTM SA Round 25,,,
"30 March, 2021",Round 25,AM190,Fenkatit Genda Wuha,,Amhara,ET03,West Gojam,ET0307,Dega Damot,ET030707,37.65604579,10.89479746,2019-05-09 00:00:00,Host community/families,1877,DTM SA Round 25,,,
"30 March, 2021",Round 25,AM228,Sefere Selam,,Amhara,ET03,North Shewa (AM),ET0305,Minjar Shenkora,ET030518,39.418606,8.927928109,2019-03-19 00:00:00,Collective Center,159,DTM SA Round 25,,,
"30 March, 2021",Round 25,AM272,Kebt tera,,Amhara,ET03,North Shewa (AM),ET0305,Minjar Shenkora,ET030518,39.43110568,8.92982092,2020-03-20 00:00:00,Host community/families,308,DTM SA Round 25,,,
"30 March, 2021",Round 25,AM273,Gebriel Akababi,,Amhara,ET03,North Shewa (AM),ET0305,Minjar Shenkora,ET030518,39.4241365,8.924664586,2020-12-28 00:00:00,Host community/families,258,DTM SA Round 25,,,
"30 March, 2021",Round 25,AM275,Solomon Ager,,Amhara,ET03,North Shewa (AM),ET0305,Minjar Shenkora,ET030518,39.42826292,8.935942172,2020-12-30 00:00:00,Host community/families,546,DTM SA Round 25,,,
"30 March, 2021",Round 25,AM283,Estie Ber,,Amhara,ET03,South Gondar,ET0302,Woreta town,ET030293,37.69587378,11.91982136,2020-04-19 00:00:00,Host community/families,303,DTM SA Round 25,,,
"30 March, 2021",Round 25,AM285,Legambo,,Amhara,ET03,South Gondar,ET0302,Woreta town,ET030293,37.69858364,11.92547895,2020-01-20 00:00:00,Host community/families,190,DTM SA Round 25,,,
"30 March, 2021",Round 25,AM287,Gebriel Sefer,,Amhara,ET03,South Gondar,ET0302,Woreta town,ET030293,37.69172044,11.92661467,2020-06-18 00:00:00,Host community/families,214,DTM SA Round 25,,,
"30 March, 2021",Round 25,AM421,Shangie Derekie,Shangie,Amhara,ET03,West Gojam,ET0307,Dega Damot,ET030707,37.6227068,10.8848459,2018-04-30 00:00:00,Host community/families,1470,DTM SA Round 25,,,
"30 March, 2021",Round 25,AM428,Wetebet,Gomata,Amhara,ET03,West Gojam,ET0307,Dembecha,ET030708,37.4902001,10.5601497,2018-12-06 00:00:00,Host community/families,254,DTM SA Round 25,,,
"30 March, 2021",Round 25,AM429,Arba Minch,,Amhara,ET03,West Gojam,ET0307,Dembecha,ET030708,37.4873828,10.5666368,2018-11-30 00:00:00,Host community/families,278,DTM SA Round 25,,,
"30 March, 2021",Round 25,OR1456,Arga got,,Oromia,ET04,Jimma,ET0404,Gumay,ET040416,36.485719,7.9979755,2018-10-30 00:00:00,Host community/families,176,DTM SA Round 25,,,
"30 March, 2021",Round 25,OR510,Mesela Town,,Oromia,ET04,West Hararge,ET0409,Mesela,ET040904,41.17967605,9.08428449,2017-09-15 00:00:00,Host community/families,152,DTM SA Round 25,,,
"30 March, 2021",Round 25,OR625,Gobesa Town,,Oromia,ET04,Arsi,ET0408,Shirka,ET040814,39.49896499,7.62134716,2017-09-17 00:00:00,Host community/families,425,DTM SA Round 25,,,
"30 March, 2021",Round 25,OR728,Biyo Gababdu,,Oromia,ET04,East Hararge,ET0410,Chinaksen,ET041015,42.69381583,9.46691111,2017-09-12 00:00:00,Host community/families,664,DTM SA Round 25,,,
"30 March, 2021",Round 25,SN327,Koybo,,SNNP,ET07,Gamo,ET0710,Gerese,ET071013,37.26137402,5.94717722,2020-04-26 00:00:00,Host community/families,188,DTM SA Round 25,,,
"30 March, 2021",Round 25,SN371,Derba,,SNNP,ET07,Amaro,ET0721,Amaro,ET072102,37.82862623,5.92663166,2016-12-22 00:00:00,Host community/families,1618,DTM SA Round 25,,,
"30 March, 2021",Round 25,SN372,Gumure,,SNNP,ET07,Amaro,ET0721,Amaro,ET072102,37.84411812,5.96067262,2016-12-22 00:00:00,Host community/families,1094,DTM SA Round 25,,,
"30 March, 2021",Round 25,SO240,Fadato,,Somali,ET05,Siti,ET0501,Gablalu,ET050199,41.66299649,10.19491412,2015-08-01 00:00:00,Spontaneous camp/site,3017,DTM SA Round 25,,,
"30 March, 2021",Round 25,SO240f,Fadato,,Somali,ET05,Siti,ET0501,Gablalu,ET050199,41.66377153,10.19542375,2020-06-28 00:00:00,Spontaneous camp/site,1373,DTM SA Round 25,,,
"30 March, 2021",Round 25,SO252,Hadhkalay,,Somali,ET05,Siti,ET0501,Shinile,ET050103,41.61396773,10.11821928,2015-08-10 00:00:00,Spontaneous camp/site,2470,DTM SA Round 25,,,
"30 March, 2021",Round 25,SO277,Kansah Dhere,,Somali,ET05,Liban,ET0509,Deka Suftu,ET050991,39.85531487,5.092444664,2016-03-05 00:00:00,Spontaneous camp/site,2610,DTM SA Round 25,,,
"30 March, 2021",Round 25,SO431,Banburad,,Somali,ET05,Korahe,ET0505,Kebridehar,ET050502,44.29065408,6.840752441,2017-01-13 00:00:00,Spontaneous camp/site,708,DTM SA Round 25,,,
"30 March, 2021",Round 25,SO582,Sadqale,,Somali,ET05,Korahe,ET0505,Kebridehar,ET050502,44.34720752,6.837572482,2017-05-01 00:00:00,Host community/families,480,DTM SA Round 25,,,
"30 March, 2021",Round 25,SO644,Elfatu 2,,Somali,ET05,Daawa,ET0511,Qada Duma,ET051198,39.27539986,3.731057414,2018-10-20 00:00:00,Host community/families,629,DTM SA Round 25,,,
"30 March, 2021",Round 25,SO698,Awal,,Somali,ET05,Liban,ET0509,Deka Suftu,ET050991,39.87394512,5.132220116,2018-07-21 00:00:00,Spontaneous camp/site,415,DTM SA Round 25,,,
"30 March, 2021",Round 25,SO777,Han taraka,,Somali,ET05,Liban,ET0509,Deka Suftu,ET050991,39.88911949,5.082614652,2020-01-22 00:00:00,Spontaneous camp/site,656,DTM SA Round 25,,,
"30 March, 2021",Round 25,SO818,Katel,,Somali,ET05,Liban,ET0509,Deka Suftu,ET050991,39.906415,5.0668353,2020-10-29 00:00:00,Spontaneous camp/site,354,DTM SA Round 25,,,
"29 March, 2021",Round 25,AF191,Adgura,,Afar,ET02,Gabi /Zone 3,ET0203,Gewane,ET020303,40.60795111,10.04476496,2015-08-25 00:00:00,Spontaneous camp/site,3520,DTM SA Round 25,,,
"29 March, 2021",Round 25,AF314,Adoda Rifo,,Afar,ET02,Gabi /Zone 3,ET0203,Gewane,ET020303,40.704976,10.1597581,2020-09-25 00:00:00,Spontaneous camp/site,3836,DTM SA Round 25,,,
"29 March, 2021",Round 25,AF315,Af'asin Gefen,,Afar,ET02,Gabi /Zone 3,ET0203,Gewane,ET020303,40.7006847,10.1349368,2020-09-25 00:00:00,Spontaneous camp/site,602,DTM SA Round 25,,,
"29 March, 2021",Round 25,AM144,Feres Bet 01,,Amhara,ET03,West Gojam,ET0307,Dega Damot,ET030707,37.59957238,10.8508042,2017-11-08 00:00:00,Host community/families,3322,DTM SA Round 25,,,
"29 March, 2021",Round 25,AM146,Ziqwala Wegem,,Amhara,ET03,West Gojam,ET0307,Dega Damot,ET030707,37.62408112,10.83733907,2019-04-27 00:00:00,Host community/families,872,DTM SA Round 25,,,
"29 March, 2021",Round 25,AM153,Feres Bet 02,,Amhara,ET03,West Gojam,ET0307,Dega Damot,ET030707,37.60793027,10.85125793,2017-12-03 00:00:00,Host community/families,1851,DTM SA Round 25,,,
"29 March, 2021",Round 25,AM168,Kebele 01,,Amhara,ET03,South Gondar,ET0302,Debre Tabor town,ET030210,38.01744486,11.85071469,2017-11-11 00:00:00,Host community/families,1092,DTM SA Round 25,,,
"29 March, 2021",Round 25,AM189,Awera godana,,Amhara,ET03,South Wello,ET0304,Thehulederie,ET030405,39.68285425,11.32317026,2018-09-15 00:00:00,Collective Center,58,DTM SA Round 25,,,
"29 March, 2021",Round 25,AM282,Amba Mariyam ,,Amhara,ET03,South Gondar,ET0302,Nefas Mewicha town,ET030215,38.47373726,11.74186274,2019-12-22 00:00:00,Host community/families,116,DTM SA Round 25,,,
"29 March, 2021",Round 25,AM284,Jegnoch Amba,,Amhara,ET03,South Gondar,ET0302,Guna Begemider,ET030212,38.21252202,11.81760963,2019-02-15 00:00:00,Host community/families,217,DTM SA Round 25,,,
"29 March, 2021",Round 25,AM289,Mekane Eyesus,,Amhara,ET03,South Wello,ET0304,Thehulederie,ET030405,39.68591405,11.3023993,2020-11-10 00:00:00,Collective Center,284,DTM SA Round 25,,,
"29 March, 2021",Round 25,AM355,Maksegnit 01,,Amhara,ET03,Central Gondar,ET0311,Gonder Zuria,ET031110,37.5550773,12.3830054,2018-09-26 00:00:00,Host community/families,270,DTM SA Round 25,,,
"29 March, 2021",Round 25,AM356,Maksegnit 02,,Amhara,ET03,Central Gondar,ET0311,Gonder Zuria,ET031110,37.559231,12.379199,2018-10-06 00:00:00,Host community/families,406,DTM SA Round 25,,,
"29 March, 2021",Round 25,AM427,Tyido,,Amhara,ET03,West Gojam,ET0307,Bure (AM),ET030710,37.0237203,10.4839153,2019-05-21 00:00:00,Host community/families,3323,DTM SA Round 25,,,
"29 March, 2021",Round 25,OR1167,Falka,,Oromia,ET04,West Arsi,ET0417,Siraro,ET041701,38.19917226,6.94701159,2018-11-18 00:00:00,Host community/families,1252,DTM SA Round 25,,,
"29 March, 2021",Round 25,OR1168,Shelo Balela,,Oromia,ET04,West Arsi,ET0417,Siraro,ET041701,38.23780728,6.94618759,2018-11-18 00:00:00,Host community/families,2366,DTM SA Round 25,,,
"29 March, 2021",Round 25,OR1249,Loke Town,,Oromia,ET04,West Arsi,ET0417,Siraro,ET041701,38.24113476,7.14396689,2019-02-22 00:00:00,Host community/families,127,DTM SA Round 25,,,
"29 March, 2021",Round 25,OR1285,Shelo Ilancho,,Oromia,ET04,West Arsi,ET0417,Siraro,ET041701,38.23953791,6.92929738,2019-01-22 00:00:00,Host community/families,8764,DTM SA Round 25,,,
"29 March, 2021",Round 25,OR1286,Shasha Goyke,,Oromia,ET04,West Arsi,ET0417,Siraro,ET041701,38.19455588,7.015830236,2019-06-15 00:00:00,Host community/families,629,DTM SA Round 25,,,
"29 March, 2021",Round 25,OR1287,Mazora Haro Shibo,,Oromia,ET04,West Arsi,ET0417,Siraro,ET041701,38.21171402,7.054916868,2019-06-15 00:00:00,Host community/families,1217,DTM SA Round 25,,,
"29 March, 2021",Round 25,OR1301,Gand Camp,,Oromia,ET04,West Hararge,ET0409,Chiro Zuria,ET040913,40.87249168,9.08797062,2019-09-23 00:00:00,Planned camp/site,58,DTM SA Round 25,,,
"29 March, 2021",Round 25,OR1307,Hare Kelo town,,Oromia,ET04,Guji,ET0414,Gora Dola,ET041413,39.39435219,5.551481484,2019-08-21 00:00:00,Host community/families,2778,DTM SA Round 25,,,
"29 March, 2021",Round 25,OR1397,Liben Negele,,Oromia,ET04,Guji,ET0414,Liben,ET041407,39.56047805,5.33956522,2020-06-05 00:00:00,Host community/families,4560,DTM SA Round 25,,,
"29 March, 2021",Round 25,OR1457,Domain Development Dorps Hall,,Oromia,ET04,Jimma,ET0404,Jimma town,ET040418,36.8480625,7.6697265,2018-05-20 00:00:00,Collective Center,3829,DTM SA Round 25,,,
"29 March, 2021",Round 25,OR1458,Industry Shade,,Oromia,ET04,Jimma,ET0404,Jimma town,ET040418,36.8268436,7.6907666,2018-05-30 00:00:00,Collective Center,295,DTM SA Round 25,,,
"29 March, 2021",Round 25,OR250,Torban Hansawe,,Oromia,ET04,West Arsi,ET0417,Siraro,ET041701,38.23157813,7.03151387,2016-03-15 00:00:00,Host community/families,456,DTM SA Round 25,,,
"29 March, 2021",Round 25,OR325,Bilitoo,,Oromia,ET04,West Arsi,ET0417,Siraro,ET041701,38.25312157,7.08824626,2016-03-15 00:00:00,Planned camp/site,460,DTM SA Round 25,,,
"29 March, 2021",Round 25,OR412,Kola Roga,,Oromia,ET04,East Hararge,ET0410,Chinaksen,ET041015,42.52109814,9.555156186,2017-09-12 00:00:00,Host community/families,1075,DTM SA Round 25,,,
"29 March, 2021",Round 25,OR732,Qaliga,,Oromia,ET04,East Hararge,ET0410,Chinaksen,ET041015,42.4944936,9.58773191,2017-09-12 00:00:00,Host community/families,1007,DTM SA Round 25,,,
"29 March, 2021",Round 25,SN363,Chukare,,SNNP,ET07,Wolayita,ET0706,Humbo,ET070604,37.93619979,6.61886034,2020-07-08 00:00:00,Host community/families,613,DTM SA Round 25,,,
"29 March, 2021",Round 25,SN364,Shotorya,,SNNP,ET07,Yem Special,ET0724,Yem SP Woreda,ET072401,37.4723672,7.71288826,2020-08-25 00:00:00,Host community/families,270,DTM SA Round 25,,,
"29 March, 2021",Round 25,SN426,Kota Kombola,,SNNP,ET07,Kembata Tibaro,ET0703,Damboya,ET070307,37.90708308,7.37401509,2018-07-17 00:00:00,Host community/families,170,DTM SA Round 25,,,
"29 March, 2021",Round 25,SN427,Yabu,,SNNP,ET07,Kembata Tibaro,ET0703,Damboya,ET070307,37.94020161,7.30738272,2018-07-18 00:00:00,Host community/families,169,DTM SA Round 25,,,
"29 March, 2021",Round 25,SN432,Dato,,SNNP,ET07,Kembata Tibaro,ET0703,Damboya,ET070307,37.96421697,7.37686474,2018-07-17 00:00:00,Host community/families,271,DTM SA Round 25,,,
"29 March, 2021",Round 25,SN433,Ambarcho,,SNNP,ET07,Kembata Tibaro,ET0703,Damboya,ET070307,37.90125061,7.32296251,2018-07-17 00:00:00,Host community/families,204,DTM SA Round 25,,,
"29 March, 2021",Round 25,SO263,Bundada Drought,,Somali,ET05,Korahe,ET0505,Kebridehar,ET050502,44.34160159,6.621226806,2017-01-01 00:00:00,Spontaneous camp/site,651,DTM SA Round 25,,,
"29 March, 2021",Round 25,SO279,War caday,,Somali,ET05,Liban,ET0509,Deka Suftu,ET050991,39.92890774,5.092387926,2016-06-28 00:00:00,Spontaneous camp/site,1661,DTM SA Round 25,,,
"29 March, 2021",Round 25,SO307,Sagag Town (02),,Somali,ET05,Nogob,ET0510,Sagag,ET051005,42.8345793,7.685512384,2016-10-05 00:00:00,Spontaneous camp/site,276,DTM SA Round 25,,,
"29 March, 2021",Round 25,SO363,Adadle town,,Somali,ET05,Shabelle,ET0506,Adadle,ET050602,43.54125274,5.795390303,2017-01-05 00:00:00,Spontaneous camp/site,4577,DTM SA Round 25,,,
"29 March, 2021",Round 25,SO368,Biralays,,Somali,ET05,Shabelle,ET0506,Adadle,ET050602,43.39831682,5.651757631,2017-01-09 00:00:00,Spontaneous camp/site,437,DTM SA Round 25,,,
"29 March, 2021",Round 25,SO477,Mara'ato,,Somali,ET05,Korahe,ET0505,Kebridehar,ET050502,44.45821685,6.523833971,2017-01-01 00:00:00,Host community/families,477,DTM SA Round 25,,,
"29 March, 2021",Round 25,SO553,Bundada Flash flood,,Somali,ET05,Korahe,ET0505,Kebridehar,ET050502,44.34160271,6.621222444,2017-05-14 00:00:00,Spontaneous camp/site,3165,DTM SA Round 25,,,
"29 March, 2021",Round 25,SO813,Duduma Ad,,Somali,ET05,Liban,ET0509,Deka Suftu,ET050991,39.9533801,5.1316581,2020-11-14 00:00:00,Spontaneous camp/site,421,DTM SA Round 25,,,
"28 March, 2021",Round 25,AM321,Addis Woyin,,Amhara,ET03,Awi,ET0309,Jawi,ET030906,36.4870825,11.5731435,2020-09-29 00:00:00,Host community/families,1031,DTM SA Round 25,,,
"28 March, 2021",Round 25,AM332,Fendika 01,,Amhara,ET03,Awi,ET0309,Jawi,ET030906,36.4901872,11.5631781,2020-09-29 00:00:00,Host community/families,537,DTM SA Round 25,,,
"28 March, 2021",Round 25,AM340,Gumbir,,Amhara,ET03,Awi,ET0309,Jawi,ET030906,36.5277054,11.6994785,2020-10-29 00:00:00,Host community/families,148,DTM SA Round 25,,,
"28 March, 2021",Round 25,OR520,Bulto,,Oromia,ET04,West Guji,ET0415,Gelana (West Guji),ET041517,37.99578377,5.77499449,2017-08-28 00:00:00,Host community/families,5951,DTM SA Round 25,,,
"28 March, 2021",Round 25,OR649,Amola,,Oromia,ET04,East Hararge,ET0410,Chinaksen,ET041015,42.48668376,9.56962494,2017-09-12 00:00:00,Host community/families,1064,DTM SA Round 25,,,
"28 March, 2021",Round 25,SO444,Marsin Town 02 Kebele,,Somali,ET05,Korahe,ET0505,Marsin,ET050586,44.94502956,7.607866223,2017-01-20 00:00:00,Spontaneous camp/site,900,DTM SA Round 25,,,
"28 March, 2021",Round 25,SO445,Nusdarik,,Somali,ET05,Korahe,ET0505,Marsin,ET050586,44.76461097,7.606965474,2017-01-15 00:00:00,Spontaneous camp/site,840,DTM SA Round 25,,,
"28 March, 2021",Round 25,SO465,Segeg Town (01),,Somali,ET05,Nogob,ET0510,Sagag,ET051005,42.83842331,7.682187818,2017-01-11 00:00:00,Spontaneous camp/site,1884,DTM SA Round 25,,,
"28 March, 2021",Round 25,SO533,Weysha,,Somali,ET05,Korahe,ET0505,Marsin,ET050586,44.70610404,7.656451522,2017-04-20 00:00:00,Spontaneous camp/site,409,DTM SA Round 25,,,
"28 March, 2021",Round 25,SO609,Bardacas,,Somali,ET05,Liban,ET0509,Deka Suftu,ET050991,39.73276374,4.702175112,2017-09-03 00:00:00,Spontaneous camp/site,1312,DTM SA Round 25,,,
"28 March, 2021",Round 25,SO610,Hiloweyn,,Somali,ET05,Liban,ET0509,Deka Suftu,ET050991,39.65953326,4.672018616,2017-09-03 00:00:00,Spontaneous camp/site,952,DTM SA Round 25,,,
"28 March, 2021",Round 25,SO611,Galun,,Somali,ET05,Liban,ET0509,Deka Suftu,ET050991,39.81768106,4.753234463,2017-09-03 00:00:00,Spontaneous camp/site,1705,DTM SA Round 25,,,
"28 March, 2021",Round 25,SO613,Bisiq,,Somali,ET05,Liban,ET0509,Deka Suftu,ET050991,39.76819734,4.747335598,2017-09-03 00:00:00,Spontaneous camp/site,850,DTM SA Round 25,,,
"28 March, 2021",Round 25,SO721,Obasha,,Somali,ET05,Fafan,ET0502,Babile (SM),ET050203,42.39709852,8.582054015,2019-01-27 00:00:00,Host community/families,964,DTM SA Round 25,,,
